_id,zip,name,address,city,state,Licensed or QRIS rating,qris,tier,latitude,longitude
1,20105,BOYD SCHOOL - ALDIE CAMPUS ,24328 GOSHEN ROAD,ALDIE,VA,Licensed,VA Licensed,0,38.9442441,-77.5625812
2,20105,GOOD BEGINNINGS SCHOOL: STONE RIDGE CAMPUS ,24194 MILLSTREAM DRIVE,ALDIE,VA,Licensed,VA Licensed,0,38.9352042,-77.556224
3,20105,MINNIELAND ACADEMY @ KIRKPATRICK FARMS ,25375 SUPREME DRIVE,ALDIE,VA,Licensed,VA Licensed,0,38.9161635,-77.5565498
4,20105,MINNIELAND ACADEMY @ STONE RIDGE ,24859 SERPENTINE PLACE,ALDIE,VA,Licensed,VA Licensed,0,38.9292637,-77.5514852
5,20109,Prince William County Head Start @ West Gate Elem ,2249 Halifax St,Manassas,VA,4 Star,VA 4 Star,3,38.7855623,-77.5275463
6,20109,Prince William County Head Start @ Sinclair Elem ,7 North Court Street,Manassas,VA,4 Star,VA 4 Star,3,38.7352016,-77.4726306
7,20109,CATERPILLAR CLUBHOUSE ,10312 BATTLEVIEW PARKWAY,MANASSAS,VA,Licensed,VA Licensed,0,38.8067546,-77.513795
8,20109,CHILDREN OF AMERICA: MANASSAS (BULL RUN) ,11730 SUDLEY MANOR DRIVE,MANASSAS,VA,Licensed,VA Licensed,0,38.7872807,-77.5184001
9,20109,KINDERCARE @ SUDLEY MANOR ,10496 SUDLEY MANOR DRIVE,MANASSAS,VA,Licensed,VA Licensed,0,38.7889375,-77.5105851
10,20109,THE LEARNING EXPERIENCE ,8120 ASHTON AVENUE,MANASSAS,VA,Licensed,VA Licensed,0,38.7821513,-77.5180309
11,20109,PRINCE WILLIAM PARKS & REC: BEN LOMOND COMMUNITY CNTR ,10501 COPELAND DRIVE,MANASSAS,VA,Licensed Preschool/Head Start,VA Licensed Preschool/Head Start,0,38.7897963,-77.5056589
12,20110,Minnieland Academy @ Technology ,105 Central Circle,Manassas,VA,3 Star,VA 3 Star,2,38.7413699,-77.5003819
13,20110,Nvfs Head Start Program: Georgetown South Ehs Cdc ,10628 Courthouse Rd,Manassas,VA,3 Star,VA 3 Star,2,38.7521033,-77.4821364
14,20110,Minnieland Academy @ Wellington ,180 Copeley Rd.,Manassas,VA,4 Star,VA 4 Star,3,38.7509488,-77.4752667
15,20110,123ABC LITTLE LEARNERS ACADEMY ,9110 RAILROAD DR,MANASSAS,VA,Licensed,VA Licensed,0,38.7636257,-77.441222
16,20110,ALL SAINTS SCHOOL EXTENDED DAY & PRE-KINDERGARTEN PROGRAM ,9294 STONEWALL ROAD,MANASSAS,VA,Licensed,VA Licensed,0,38.7535953,-77.4864917
17,20110,APPLE TREE PRESCHOOL ,8485 PLANTATION LANE,MANASSAS,VA,Licensed,VA Licensed,0,38.770497,-77.480544
18,20110,CAROUSEL CHILD DEVELOPMENT CENTER ,9151 CENTREVILLE ROAD,MANASSAS,VA,Licensed,VA Licensed,0,38.754765,-77.464018
19,20110,CHESTERBROOK ACADEMY ,10951 SAMUEL TREXLER DRIVE,MANASSAS,VA,Licensed,VA Licensed,0,38.7386527,-77.5237063
20,20110,CHILDREN OF AMERICA: MANASSAS ,9655 LIBERIA AVENUE,MANASSAS,VA,Licensed,VA Licensed,0,38.7485769,-77.4494708
21,20110,CHILDTIME CHILDREN'S CENTER ,8461 SIGNAL HILL ROAD,MANASSAS,VA,Licensed,VA Licensed,0,38.748547,-77.4511015
22,20110,FREEDOM AQUATIC PRESCHOOL & SUMMER CAMPS ,10900 UNIVERSITY BOULEVARD,MANASSAS,VA,Licensed,VA Licensed,0,38.7564145,-77.5213804
23,20110,GRACE CHILDREN'S LEARNING CENTER ,9750 WELLINGTON ROAD,MANASSAS,VA,Licensed,VA Licensed,0,38.7383142,-77.4766728
24,20110,LA PETITE ACADEMY: MANASSAS ,10023 DUMFRIES ROAD,MANASSAS,VA,Licensed,VA Licensed,0,38.7383672,-77.4713698
25,20110,LEARNING TREE ACADEMY ,9840 GRANT AVENUE,MANASSAS,VA,Licensed,VA Licensed,0,38.741417,-77.471886
26,20110,MANASSAS CHRISTIAN ACADEMY ,8757 SIGNAL HILL DRIVE,MANASSAS,VA,Licensed,VA Licensed,0,38.748478,-77.4627
27,20110,MINNIELAND ACADEMY @ TECHNOLOGY ,9511 TECHNOLOGY DRIVE,MANASSAS,VA,Licensed,VA Licensed,0,38.749351,-77.49467
28,20110,MINNIELAND ACADEMY @ WELLINGTON ,10249 HENDLEY ROAD,MANASSAS,VA,Licensed,VA Licensed,0,38.7351691,-77.4774881
29,20110,ROBERT DAY CHILD CARE CENTER ,9208 CENTREVILLE ROAD,MANASSAS,VA,Licensed,VA Licensed,0,38.7548559,-77.4672889
30,20110,SEVEN OAKS ACADEMY ,8653 SUDLEY ROAD,MANASSAS,VA,Licensed,VA Licensed,0,38.769214,-77.485663
31,20110,"THE COMPASS SCHOOL OF MANASSAS, INC. ",9811 GODWIN DRIVE,MANASSAS,VA,Licensed,VA Licensed,0,38.743029,-77.5112951
32,20110,VENUS CHILD CARE & LEARNING CENTER ,8610 MATHIS AVE,MANASSAS,VA,Licensed,VA Licensed,0,38.768991,-77.456143
33,20110,"ALPHA-BET PRESCHOOL, INC. ",10047 NOKESVILLE ROAD,MANASSAS,VA,Licensed Preschool/Head Start,VA Licensed Preschool/Head Start,0,38.7479827,-77.4996583
34,20110,NVFS HEAD START PROGRAM: GEORGETOWN SOUTH EHS CDC ,9444 TANEY ROAD,MANASSAS,VA,Licensed Preschool/Head Start,VA Licensed Preschool/Head Start,0,38.7412767,-77.4729927
35,20110,RENAISSANCE MONTESSORI SCHOOL ,8730 SUDLEY ROAD,MANASSAS,VA,Licensed Preschool/Head Start,VA Licensed Preschool/Head Start,0,38.7647388,-77.4827185
36,20111,Costello Park Preschool & Extended Care ,1004 S Main St,Manassas Park,VA,3 Star,VA 3 Star,2,38.7440272,-77.4696579
37,20111,ABOVE AND BEYOND CHILD CARE ,7223 CENTREVILLE RD  SUITE #110,MANASSAS,VA,Licensed,VA Licensed,0,38.7550023,-77.4357739
38,20111,COSTELLO PARK PRESCHOOL & EXTENDED CARE ,99 ADAMS STREET,MANASSAS PARK,VA,Licensed,VA Licensed,0,38.7831535,-77.4622484
39,20111,NOAH'S ARK CHRISTIAN PRESCHOOL ,8904 YORKSHIRE LANE,MANASSAS PARK,VA,Licensed,VA Licensed,0,38.790168,-77.465819
40,20111,PATY-KAKE DAY CENTER ,8031 MCLEAN STREET,MANASSAS PARK,VA,Licensed,VA Licensed,0,38.7788845,-77.4578364
41,20111,THE MERIT SCHOOL OF MANASSAS PARK ,9481 MANASSAS DRIVE,MANASSAS,VA,Licensed,VA Licensed,0,38.7604322,-77.4414232
42,20112,MINNIELAND ACADEMY @ ASHLAND ,5555 ASSATEAGUE PLACE,MANASSAS,VA,Licensed,VA Licensed,0,38.612774,-77.375806
43,20112,THE CHILDREN'S CENTER OF MANASSAS ,12019 FALLING CREEK DRIVE,MANASSAS,VA,Licensed,VA Licensed,0,38.690675,-77.439774
44,20115,MOUNTAINSIDE MONTESSORI ,6089 JOHN BARTON PAYNE RD,MARSHALL,VA,Licensed,VA Licensed,0,38.7872241,-77.9437431
45,20115,MIDDLEBURG MONTESSORI ,7274 RECTOR'S LN,MARSHALL,VA,Licensed Preschool/Head Start,VA Licensed Preschool/Head Start,0,38.976151,-77.810342
46,20117,FLEUR-DE-LIS MONTESSORI SCHOOL ,105 EAST WASHINGTON STREET,MIDDLEBURG,VA,Licensed,VA Licensed,0,38.9692389,-77.7337343
47,20118,LOUDOUN COUNTY PARKS & REC CHILD CARE @ MIDDLEBURG COMM CNTR ,300 W WASHINGTON ST,MIDDLEBURG,VA,Licensed,VA Licensed,0,38.9681063,-77.738958
48,20119,FAUQUIER COMMUNITY ACTION COMMITTEE: HM PEARSON HEAD START ,9347 BASTABLE MILL RD,CATLETT,VA,Licensed Preschool/Head Start,VA Licensed Preschool/Head Start,0,38.650518,-77.677064
49,20120,Fecep/Head Start Program @ London Towne ,9511 Technology Drive,Centreville,VA,3 Star,VA 3 Star,2,38.9042789,-77.471321
50,20120,"HANDS DAYCARE, INC. ",14301 BRADDOCK RD,CENTREVILLE,VA,Licensed,VA Licensed,0,38.850053,-77.442952
51,20120,HAPPY FACES DAYCARE & PRESCHOOL ,13923 BRADDOCK RD,CENTREVILLE,VA,Licensed,VA Licensed,0,38.839889,-77.428849
52,20120,KIDDIE ACADEMY OF CENTREVILLE ,14275 BRADDOCK ROAD,CENTREVILLE,VA,Licensed,VA Licensed,0,38.8489952,-77.4406358
53,20120,KINDERCARE: CENTREVILLE ,6215 STONE ROAD,CENTREVILLE,VA,Licensed,VA Licensed,0,38.8354855,-77.4561804
54,20120,KINDERCARE: WOODMERE DR ,5124 WOODMERE DRIVE,CENTREVILLE,VA,Licensed,VA Licensed,0,38.866526,-77.445926
55,20120,LA PETITE ACADEMY: SULLY STATION ,5130 WOODMERE DR,CENTREVILLE,VA,Licensed,VA Licensed,0,38.8659725,-77.4464063
56,20120,MINNIELAND ACADEMY @ SULLY STATION (#64) ,5801 & 5803 STONE CREEK DRIVE,CENTREVILLE,VA,Licensed,VA Licensed,0,43.4135781,24.6118416
57,20120,RAINBOW CHILD DEVELOPMENT CENTER ,14311 BRADDOCK RD,CENTREVILLE,VA,Licensed,VA Licensed,0,38.8496883,-77.4423659
58,20120,CENTREVILLE PRESCHOOL INC ,13916 BRADDOCK RD,CENTREVILLE,VA,Licensed Preschool/Head Start,VA Licensed Preschool/Head Start,0,38.839914,-77.4280245
59,20121,CHESTERBROOK ACADEMY: CENTREVILLE ,6210 MULTIPLEX DRIVE,CENTREVILLE,VA,Licensed,VA Licensed,0,38.8307227,-77.4395031
60,20121,CLIFTON CHIDLREN'S ACADEMY ,14315 COMPTON RD,CENTREVILLE,VA,Licensed,VA Licensed,0,38.8077013,-77.443358
61,20121,LA PETITE ACADEMY: CENTREVILLE ,6600 LA PETITE PLACE,CENTREVILLE,VA,Licensed,VA Licensed,0,38.819208,-77.4386113
62,20121,MINNIELAND @ CENTREVILLE SQUARE ,6001 CENTREVILLE CREST LANE,CENTREVILLE,VA,Licensed,VA Licensed,0,38.8371898,-77.4335514
63,20121,WILLOWCREEK ACADEMY CENTREVILLE ,6100 REDWOOD SQUARE CENTER,CENTREVILLE,VA,Licensed,VA Licensed,0,38.8312973,-77.432657
64,20121,CENTREVILLE DAY SCHOOL ,6400 OLD CENTREVILLE RD,CENTREVILLE,VA,Licensed Preschool/Head Start,VA Licensed Preschool/Head Start,0,38.82564,-77.4397538
65,20121,MONTESSORI CHILDREN'S CENTER: CENTREVILLE CENTER ,6319 OLD CENTREVILLE RD,CENTREVILLE,VA,Licensed Preschool/Head Start,VA Licensed Preschool/Head Start,0,38.8249229,-77.4392389
66,20121,MULFORD PRIVATE SCHOOL ,15105 LEE HIGHWAY,CENTREVILLE,VA,Licensed Preschool/Head Start,VA Licensed Preschool/Head Start,0,38.8309959,-77.4700222
67,20124,CHESTERBROOK ACADEMY: CLIFTON ,13501 BRADDOCK RD,CLIFTON,VA,Licensed,VA Licensed,0,38.8320557,-77.4132825
68,20124,CHILDTIME LEARNING CENTER: UNION MILL ,6000 UNION MILL RD,CLIFTON,VA,Licensed,VA Licensed,0,38.8274146,-77.4133246
69,20124,COUNTRY SCHOOL HOUSE ,13316 BRADDOCK RD,CLIFTON,VA,Licensed,VA Licensed,0,38.8305413,-77.4076428
70,20124,LORD OF LIFE PRESCHOOL-CLIFTON ,13421 TWIN LAKES DRIVE,CLIFTON,VA,Licensed Preschool/Head Start,VA Licensed Preschool/Head Start,0,38.8190669,-77.412425
71,20124,ST. THE APOSTLE ANDREW PRESCHOOL ,6720-B UNION MILL RD,CLIFTON,VA,Licensed Preschool/Head Start,VA Licensed Preschool/Head Start,0,38.8050185,-77.4220622
72,20131,LOUDOUN COUNTY PARKS & REC CHILD CARE @ PHILOMONT COMM ニ_CNTR ,36592 JEB STUART ROAD,PHILOMONT,VA,Licensed,VA Licensed,0,39.057249,-77.7391169
73,20132,LOUDOUN COUNTY PARKS & REC CHILD CARE @ LOUDOUN VALLEY COMM ,320 W. SCHOOL STREET,PURCELLVILLE,VA,Licensed,VA Licensed,0,39.132163,-77.719308
74,20132,MONTESSORI SCHOOL OF PURCELLVILLE ,280 N. HATCHER AVE,PURCELLVILLE,VA,Licensed,VA Licensed,0,39.140137,-77.714412
75,20132,PURCELLVILLE CHILDREN'S ACADEMY ,205 NORTH MAPLE AVE,PURCELLVILLE,VA,Licensed,VA Licensed,0,39.138495,-77.7069999
76,20135,LOUDOUN COUNTY PARKS & REC CHILD CARE @ BLUEMONT COMM CNTR ,33846 SNICKERSVILLE PIKE,BLUEMONT,VA,Licensed,VA Licensed,0,39.1097232,-77.8292999
77,20135,VILLAGE MONTESSORI SCHOOL @ BLUEMONT ,33874 SNICKERSVILLE TURNPIKE,BLUEMONT,VA,Licensed,VA Licensed,0,39.1068862,-77.8252449
78,20136,BRISTOW MONTESSORI SCHOOL ,9050 DEVLIN ROAD,BRISTOW,VA,Licensed,VA Licensed,0,38.7597136,-77.5757012
79,20136,KINDERCARE LEARNING CENTER #1808 ,12871 BRAEMAR VILLAGE PLAZA,BRISTOW,VA,Licensed,VA Licensed,0,38.748837,-77.571809
80,20136,KINDERCARE LEARNING CENTER AT BRAEMAR ,12121 CAITHNESS CIRCLE,BRISTOW,VA,Licensed,VA Licensed,0,38.739807,-77.5603919
81,20136,"LINTON HALL PRESCHOOL, EXTENDED DAY & SUMMER CAMP PROGRAM ",9535 LINTON HALL ROAD,BRISTOW,VA,Licensed,VA Licensed,0,38.7511801,-77.5687425
82,20136,MINNIELAND ACADEMY @ BRAEMAR ,12700 CORREEN HILLS DRIVE,BRISTOW,VA,Licensed,VA Licensed,0,38.742785,-77.580003
83,20136,MINNIELAND ACADEMY @ BRISTOW CENTER ,10368 BRISTOW CENTER DRIVE,BRISTOW,VA,Licensed,VA Licensed,0,38.7341651,-77.5490218
84,20147,ARRIS MONTESSORI ACADEMY ,44675 CAPE COURT,ASHBURN,VA,Licensed,VA Licensed,0,39.0177367,-77.4551693
85,20147,ASHBURN VILLAGE COUNTRY DAY SCHOOL ,20909 ASHBURN VILLAGE BLVD.,ASHBURN,VA,Licensed,VA Licensed,0,39.037901,-77.475814
86,20147,BEANTREE LEARNING ,43629 GREENWAY CORPORATE DRIVE,ASHBURN,VA,Licensed,VA Licensed,0,39.0074483,-77.4918817
87,20147,CHESTERBROOK ACADEMY #805 ,43800 CLEMENS TERRACE,ASHBURN,VA,Licensed,VA Licensed,0,39.0256645,-77.4851921
88,20147,CHESTERBROOK ACADEMY #827 ,20424 ASHBURN VILLAGE BLVD.,ASHBURN,VA,Licensed,VA Licensed,0,39.050931,-77.474509
89,20147,GODDARD SCHOOL OF ASHBURN @ BELMONT ,42885 ORCHARD ORIOLE DRIVE,ASHBURN,VA,Licensed,VA Licensed,0,39.053939,-77.517553
90,20147,GODDARD SCHOOL- ASHBURN ,45091 RESEARCH PL,ASHBURN,VA,Licensed,VA Licensed,0,39.0524284,-77.4397529
91,20147,GOLDEN POND SCHOOL LLC ,43940 FARMWELL HUNT PLAZA,ASHBURN,VA,Licensed,VA Licensed,0,39.0236844,-77.4820678
92,20147,HA'PENNY MONTESSORI SCHOOL ,20854 STUBBLE ROAD,ASHBURN,VA,Licensed,VA Licensed,0,39.046556,-77.488191
93,20147,KIDDIE ACADEMY OF ASHBURN ,20775 CENTURY CORNER DR.,ASHBURN,VA,Licensed,VA Licensed,0,39.0421249,-77.5234972
94,20147,KINDERCARE LEARNING CENTER @ GOLDEN MEADOW ,43599 GOLDEN MEADOW CIRCLE,ASHBURN,VA,Licensed,VA Licensed,0,39.0282293,-77.4930015
95,20147,KINDERCARE LEARNING CENTER @ RAILSTOP ,43323 RAILSTOP TERRACE,ASHBURN,VA,Licensed,VA Licensed,0,39.033742,-77.5015306
96,20147,KINDERCARE LEARNING CENTER: ASHBURN VILLAGE ,44051 ASHBURN VILLAGE PLAZA,ASHBURN,VA,Licensed,VA Licensed,0,39.0435724,-77.4761958
97,20147,LA PETITE ACADEMY OF ASHBURN ,20110 ASHBURN VILLAGE BOULEVARD,ASHBURN,VA,Licensed,VA Licensed,0,39.0589436,-77.476443
98,20147,LITTLE LEARNERS ACADEMY ,45135 WATERPOINTE TERRACE,ASHBURN,VA,Licensed,VA Licensed,0,39.0568027,-77.4393332
99,20147,MINNIELAND ACADEMY @ ASHBRIAR ,43560 SUZANNE HOPE WAY,ASHBURN,VA,Licensed,VA Licensed,0,39.0226751,-77.4937977
100,20147,MINNIELAND ACADEMY @ ASHBURN ,20108 ASHBURN VILLAGE BOULEVARD,ASHBURN,VA,Licensed,VA Licensed,0,39.0592691,-77.4763186
101,20147,MINNIELAND ACADEMY @ BELMONT ,43900 RUSSELL BRANCH PARKWAY,ASHBURN,VA,Licensed,VA Licensed,0,39.0604691,-77.4739473
102,20147,MONTESSORI ACADEMY AT BELMONT GREENE ,20300 BOWFONDS STREET,ASHBURN,VA,Licensed,VA Licensed,0,39.055168,-77.51343
103,20147,PRIMROSE SCHOOL OF ASHBURN ,44830 LAKEVIEW OVERLOOK PLAZA,ASHBURN,VA,Licensed,VA Licensed,0,39.0600123,-77.4489183
104,20147,THE CHILDREN'S LEARNING LABORATORY ,19700 HELIX DRIVE,ASHBURN,VA,Licensed,VA Licensed,0,39.0714096,-77.4642702
105,20147,THE COMPASS SCHOOL OF ASHBURN ,44128 NAVAJO DRIVE,ASHBURN,VA,Licensed,VA Licensed,0,39.0590094,-77.4720463
106,20147,THE PAVILION @ BEANTREE LEARNING ,43629 GREENWAY CORPORATE DR,ASHBURN,VA,Licensed,VA Licensed,0,39.0074483,-77.4918817
107,20147,WINWOOD CHILDREN'S CENTER II ,43244 HAY ROAD,ASHBURN,VA,Licensed,VA Licensed,0,39.046563,-77.50684
108,20147,MONARCH CHRISTIAN ACADEMY: ASHBURN VILLAGE ,20430 ASHBURN VILLAGE,ASHBURN,VA,Licensed Preschool/Head Start,VA Licensed Preschool/Head Start,0,39.051765,-77.474758
109,20148,WINWOOD CHILDRENS CENTER BRAMBLETON 2 ,42635 REDEEMER TERRACE,BRAMBLETON,VA,Licensed,VA Licensed,0,38.995364,-77.5262222
110,20148,BOYD SCHOOL - BROADLANDS ,42945 WAXPOOL ROAD,ASHBURN,VA,Licensed,VA Licensed,0,39.0161192,-77.5190441
111,20148,CHESTERBROOK ACADEMY #826 ,22695 COTTON GRASS WAY,ASHBURN,VA,Licensed,VA Licensed,0,38.989,-77.525815
112,20148,KINDERCARE LEARNING CENTER @ BROADLANDS ,43083 WAXPOOL ROAD,ASHBURN,VA,Licensed,VA Licensed,0,39.0169212,-77.5139248
113,20148,MONTESSORI KIDS UNIVERSE OF ASHBURN ,21740 BEAUMEADE CIR,ASHBURN,VA,Licensed,VA Licensed,0,39.0180296,-77.456387
114,20148,OPEN ARMS CHRISTIAN CHILD DEVELOPMENT CENTER ,43115 WAXPOOL ROAD,ASHBURN,VA,Licensed,VA Licensed,0,39.0165281,-77.5128536
115,20148,PRIMROSE SCHOOL @ MOOREFIELD STATION ,43345 BISSELL TERRACE,ASHBURN,VA,Licensed,VA Licensed,0,38.9922328,-77.5016774
116,20148,WINWOOD CHILDREN'S CENTER: BRAMBLETON I ,42780 CREIGHTON ROAD,ASHBURN,VA,Licensed,VA Licensed,0,38.971705,-77.523573
117,20148,COOPERATIVE PRESCHOOL OF LOUDOUN ,42507 MOUNT HOPE ROAD,ASHBURN,VA,Licensed Preschool/Head Start,VA Licensed Preschool/Head Start,0,39.0101847,-77.5323585
118,20151,BEAN TREE LEARNING: WESTFIELD ,5003 WESTONE PLAZA,CHANTILLY,VA,Licensed,VA Licensed,0,38.870197,-77.445559
119,20151,BOYD SCHOOL-WESTFIELDS ,4550 WALNEY ROAD,CHANTILLY,VA,Licensed,VA Licensed,0,38.8776949,-77.4353751
120,20151,CCLC PRESCHOOL @ CHANTILLY ,14370 NEWBROOK DR,CHANTILLY,VA,Licensed,VA Licensed,0,38.8766807,-77.4458322
121,20151,CHESTERBROOK ACADEMY ELEMENTARY SCHOOL EXTENDED DAY ,3753 CENTERVIEW DR.,CHANTILLY,VA,Licensed,VA Licensed,0,38.9010263,-77.4277488
122,20151,CHESTERBROOK ACADEMY: CHANTILLY ,3753 CENTERVIEW DR,CHANTILLY,VA,Licensed,VA Licensed,0,38.9010263,-77.4277488
123,20151,CHILDREN OF THE WORLD LEARNING CENTERS LLC ,4451 BROOKFIELD CORPORATION DR. #201,CHANTILLY,VA,Licensed,VA Licensed,0,38.8706419,-77.3681859
124,20151,FREEDOM MONTESSORI SCHOOL ,4229 LAFAYETTE CENTER DR,CHANTILLY,VA,Licensed,VA Licensed,0,38.9085543,-77.4740049
125,20151,IMAGINATION LEARNING CENTER SITE I ,14428 ALBEMARLE POINT PLACE,CHANTILLY,VA,Licensed,VA Licensed,0,38.8915038,-77.44573
126,20151,IMAGINATION LEARNING CENTER SITE II ,14225 NEWBROOK DRIVE,CHANTILLY,VA,Licensed,VA Licensed,0,38.8758709,-77.43872
127,20151,KINDERCARE: STRINGFELLOW RD ,4216 STRIINGFELLOW ROAD,CHANTILLY,VA,Licensed,VA Licensed,0,38.8791467,-77.4098306
128,20151,MONTESSORI SCHOOL OF CHANTILLY ,4455 BROOKFIELD CORPORATE DRIVE,CHANTILLY,VA,Licensed,VA Licensed,0,38.8818424,-77.4416454
129,20151,MONTESSORI SCHOOL OF FAIRFAX ,3411 LEES CORNER RD,CHANTILLY,VA,Licensed,VA Licensed,0,38.9043201,-77.4183908
130,20151,PIONEER CHILDREN'S CENTER ,13880 METROTECH DRIVE,CHANTILLY,VA,Licensed,VA Licensed,0,38.89434,-77.4229025
131,20151,SAINT TIMOTHY SCHOOL ,13809 POPLAR TREE RD,CHANTILLY,VA,Licensed,VA Licensed,0,38.8730535,-77.4243909
132,20151,SPARKLES! @ CHANTILLY ,4229 LAFAYETTE CENTER DR,CHANTILLY,VA,Licensed,VA Licensed,0,38.9085543,-77.4740049
133,20151,THE GODDARD SCHOOL-CHANTILLY ,5001 WESTONE PLAZA,CHANTILLY,VA,Licensed,VA Licensed,0,38.8696057,-77.445646
134,20151,THE LEARNING EXPERIENCE: CHANTILLY ,4150 PLEASANT VALLEY RD,CHANTILLY,VA,Licensed,VA Licensed,0,38.9072694,-77.4741255
135,20151,CHANTILLY ACADEMY ,14088 SULLYFIELD CIR STE K,CHANTILLY,VA,Licensed Preschool/Head Start,VA Licensed Preschool/Head Start,0,38.8896782,-77.4348248
136,20151,MONARCH CHRISTIAN ACADEMY ,4090 LAFAYETTE CTR. DR,CHANTILLY,VA,Licensed Preschool/Head Start,VA Licensed Preschool/Head Start,0,38.9090225,-77.4699087
137,20151,MONTESSORI OF CHANTILLY - CASA DEI BAMBINI ,4212-F TECHNOLOGY CT,CHANTILLY,VA,Licensed Preschool/Head Start,VA Licensed Preschool/Head Start,0,38.9035883,-77.4716826
138,20152,DISCOVERY STATION LEARNING CENTER ,43184 TOWN HALL PLAZA,SOUTH RIDING,VA,Licensed,VA Licensed,0,38.924714,-77.509217
139,20152,EAST GATE MONTESSORI ,43665 TALL CEDARS PKWY,CHANTILLY,VA,Licensed,VA Licensed,0,38.9100505,-77.4931716
140,20152,LOUDOUN COUNTY PARKS & REC CHILD CARE @ DULLES CENTER ,24950 RIDING CENTER DRIVE,SOUTH RIDING,VA,Licensed,VA Licensed,0,38.921203,-77.525453
141,20152,MINNIELAND ACADEMY @ SOUTH RIDING ,25400 SOUTH RIDING BLVD.,SOUTH RIDING,VA,Licensed,VA Licensed,0,38.914886,-77.511591
142,20152,MONTESSORI CHILDREN'S CENTER: SOUTH RIDING ,25075 WHITE SANDS DRIVE,CHANTILLY,VA,Licensed,VA Licensed,0,38.923965,-77.543689
143,20152,PRIMROSE SCHOOL OF SOUTH RIDING ,43705 EASTGATE VIEW DRIVE,CHANTILLY,VA,Licensed,VA Licensed,0,38.9130018,-77.4849406
144,20152,SOUTH RIDING MONTESSORI CENTER ,43181 AMBERWOOD PLAZA,SOUTH RIDING,VA,Licensed,VA Licensed,0,38.9232114,-77.5093166
145,20152,THE GODDARD SCHOOL-CHANTILLY ,43655 TALL CEDARS PARKWAY,CHANTILLY,VA,Licensed,VA Licensed,0,38.9100068,-77.4931812
146,20152,THE MADAME CURIE SCHOOL OF SCIENCE AND TECHNOLOGY ,43250 STONEWALL POND STREET,CHANTILLY,VA,Licensed,VA Licensed,0,38.920586,-77.506477
147,20152,WINWOOD CHILDREN'S CENTER V ,42851 SMALLWOOD TERRACE,SOUTH RIDING,VA,Licensed,VA Licensed,0,38.914748,-77.5212899
148,20152,MONTESSORI SCHOOL OF SOUTH RIDING ,25152 ELK LICK RD,SOUTH RIDING,VA,Licensed Preschool/Head Start,VA Licensed Preschool/Head Start,0,38.921235,-77.510266
149,20155,CHESTERBROOK ACADEMY #809 GAINESVILLE ,7541 VIRGINIA OAKS DRIVE,GAINESVILLE,VA,Licensed,VA Licensed,0,38.792871,-77.61796
150,20155,DAYTIME PLAYTIME ENRICHMENT CENTER ,14680 GAP WAY,GAINESVILLE,VA,Licensed,VA Licensed,0,38.807647,-77.627932
151,20155,KIDDIE ACADEMY OF GAINESVILLE ,13980 ESTATE MANOR DR,GAINESVILLE,VA,Licensed,VA Licensed,0,38.7673506,-77.6055312
152,20155,LAKE MANASSAS ACADEMY ,14930 HOLLY KNOLL LANE,GAINESVILLE,VA,Licensed,VA Licensed,0,38.785441,-77.6318423
153,20155,MINNIELAND ACADEMY @ GAINESVILLE ,8299 HARNESS SHOP ROAD,GAINESVILLE,VA,Licensed,VA Licensed,0,38.7764477,-77.5981183
154,20155,MINNIELAND ACADEMY @ HERITAGE HUNT ,7101 HERITAGE VILLAGE PLAZA,GAINESVILLE,VA,Licensed,VA Licensed,0,38.8034947,-77.6027154
155,20155,MONTESSORI OF GAINESVILLE-CASA DEI BAMBINI ,14130 GLENKIRK RD,GAINESVILLE,VA,Licensed,VA Licensed,0,38.7695306,-77.6180712
156,20155,MONTESSORI SCHOOL OF GAINESVILLE ,14421 NEWBERN LOOP,GAINESVILLE,VA,Licensed,VA Licensed,0,38.8110005,-77.6157091
157,20155,RAINBOW STATION @ HAYMARKET ,6800 PIEDMONT CENTER PLAZA,GAINESVILLE,VA,Licensed,VA Licensed,0,38.809641,-77.6248145
158,20155,WILLOWCREEK ACADEMY GAINESVILLE ,8171 LINTON HALL RD,GAINESVILLE,VA,Licensed,VA Licensed,0,38.7802393,-77.6014606
159,20155,WINWOOD CHILDREN'S CENTER IV ,7830 OLD LINTON HALL ROAD,GAINESVILLE,VA,Licensed,VA Licensed,0,38.7871225,-77.6084087
160,20155,GARDEN SCHOOL ,13710 MILESTONE COURT,GAINESVILLE,VA,Licensed Preschool/Head Start,VA Licensed Preschool/Head Start,0,38.7798526,-77.6008931
161,20164,AUGUSTA SCHOOL ,21370 Potomac View Road,STERLING,VA,Licensed,VA Licensed,0,39.0243326,-77.3914635
162,20164,BUILDING BLOCKS - STERLING PARK ,150 ENTERPRISE ST,STERLING,VA,Licensed,VA Licensed,0,38.9982343,-77.4024434
163,20164,CHILDREN OF AMERICA: STERLING ,46586 SOUTH COTTAGE STREET,STERLING,VA,Licensed,VA Licensed,0,39.0291008,-77.3890119
164,20164,DISCOVERY OAKS ACADEMY ,624 WEST CHURCH ROAD,STERLING,VA,Licensed,VA Licensed,0,39.008539,-77.4102054
165,20164,KINDERCARE LEARNING CENTER AT STERLING PARK ,106 FREE COURT,STERLING PARK,VA,Licensed,VA Licensed,0,39.0129178,-77.3956004
166,20164,LOUDOUN COUNTY PARKS & REC CHILD CARE @ CLAUDE MOORE COMM CN ,46105 LOUDOUN PARK LANE,STERLING,VA,Licensed,VA Licensed,0,39.0135453,-77.4096825
167,20164,MONTESSORI CHILDREN'S HOUSE OF LOUDOUN ,880 WEST CHURCH RD,STERLING,VA,Licensed,VA Licensed,0,39.0080245,-77.4176324
168,20164,SAFARI KID ,46839 MAPLE LEAF PLACE SUITE 116,STERLING,VA,Licensed,VA Licensed,0,39.0196639,-77.3796512
169,20164,SUGARLAND LEARNING ACADEMY ,83 SUGARLAND RUN DRIVE,STERLING,VA,Licensed,VA Licensed,0,39.038305,-77.381529
170,20164,CLASSROOM OF DISCOVERY ,201 EAST FREDERICK DRIVE,STERLING,VA,Licensed Preschool/Head Start,VA Licensed Preschool/Head Start,0,39.015262,-77.3883199
171,20165,CHESTERBROOK ACADEMY #804 ,20733 GREAT FALLS PLAZA,STERLING,VA,Licensed,VA Licensed,0,39.0415864,-77.3582314
172,20165,CHESTERBROOK ACADEMY #813 ,46386 LOGAN WAY,STERLING,VA,Licensed,VA Licensed,0,39.031356,-77.394495
173,20165,COUNTRYSIDE CHILDREN'S ACADEMY ,20890 PIDGEON HILL DRIVE,STERLING,VA,Licensed,VA Licensed,0,39.0376227,-77.4108831
174,20165,KINDERCARE LEARNING CENTER @ CASCADES ,20655 FERNBANK COURT,STERLING,VA,Licensed,VA Licensed,0,39.0444,-77.395618
175,20165,LA PETITE ACADEMY OF STERLING ,211 EDDS LN,STERLING,VA,Licensed,VA Licensed,0,39.0411607,-77.4130227
176,20165,LOLA'S PLACE-A MONTESSORI INFANT AND TODDLER CENTER ,20685 FERNBANK COURT,STERLING,VA,Licensed,VA Licensed,0,39.043677,-77.396298
177,20165,VILLAGE GREEN DAY SCHOOL ニ_AT LOWES ISLAND ,47722 SAULTY DR,STERLING,VA,Licensed,VA Licensed,0,39.045449,-77.348456
178,20166,AOL CHILD DEVELOPMENT CENTER ,44825 & 44821 PRENTICE DRIVE,DULLES,VA,Licensed,VA Licensed,0,40.9526252,-82.9427615
179,20166,CHESTERBROOK ACADEMY #815 ,46100 WOODSHIRE DRIVE,STERLING,VA,Licensed,VA Licensed,0,39.0268439,-77.404939
180,20166,CREME DE LA CREME ,21290 SPRINGLAKE CT,STERLING,VA,Licensed,VA Licensed,0,39.026279,-77.403149
181,20166,KINDERCARE LEARNING CTR #1562 ,21019 FORUM TERRACE,STERLING,VA,Licensed,VA Licensed,0,39.034122,-77.416735
182,20166,MINNIELAND ACADEMY @ DULLES ,23521 OVERLAND DR,STERLING,VA,Licensed,VA Licensed,0,38.964775,-77.495595
183,20169,Prince William County Head Start @ Battlefield High ,1133 Locust Dr,Haymarket,VA,4 Star,VA 4 Star,3,43.071136,-87.9261225
184,20169,MINNIELAND ACADEMY @ DOMINION VALLEY ,5255 MERCHANTS VIEW SQUARE,HAYMARKET,VA,Licensed,VA Licensed,0,38.8437589,-77.6422674
185,20169,MINNIELAND ACADEMY @ HEATHCOTE ,15040 HEATHCOTE BLVD,HAYMARKET,VA,Licensed,VA Licensed,0,38.8235501,-77.6385288
186,20169,4 R'S PRESCHOOL ,6745 JEFFERSON STREET,HAYMARKET,VA,Licensed Preschool/Head Start,VA Licensed Preschool/Head Start,0,38.8105197,-77.6363834
187,20170,Kindercare: Herndon Parkway ,510 Franklin Street,Herndon,VA,3 Star,VA 3 Star,2,38.905183,-77.3877151
188,20170,CHESTERBROOK ACADEMY: HERNDON ,222 SPRING ST.,HERNDON,VA,Licensed,VA Licensed,0,38.9591768,-77.3747489
189,20170,CHILDREN'S PLACE ,860 DRANESVILLE RD,HERNDON,VA,Licensed,VA Licensed,0,38.9844575,-77.3777455
190,20170,HERNDON CHILDREN'S CENTER ,"530 HUNTMAR PARK DR., SUITE 800-B",HERNDON,VA,Licensed,VA Licensed,0,38.9638093,-77.3796173
191,20170,HOPKINS HOUSE INNOVATIVE PRESCHOOL ACADEMY ,200 FAIRBROOK DRIVE,HERNDON,VA,Licensed,VA Licensed,0,38.9559048,-77.3775673
192,20170,KINDERCARE: HERNDON PARKWAY ,1178 HERNDON PKWY,HERNDON,VA,Licensed,VA Licensed,0,38.9648203,-77.4009257
193,20170,KINDERCARE: LOCUST ST ,801 LOCUST ST.,HERNDON,VA,Licensed,VA Licensed,0,38.9683849,-77.3884772
194,20170,MONTESSORI SCHOOL OF HERNDON ,840 DRANESVILLE RD.,HERNDON,VA,Licensed,VA Licensed,0,38.98362,-77.377233
195,20170,THE BOYD SCHOOL: RESTON CAMPUS ,11579 CEDAR CHASE RD,HERNDON,VA,Licensed,VA Licensed,0,38.9977751,-77.3441371
196,20170,WORLDGATE SPORT AND HEALTH CLUB ,13037 WORLDGATE DR.,HERNDON,VA,Licensed,VA Licensed,0,38.9578964,-77.3999948
197,20170,HERNDON COMMUNITY CENTER ,814 FERNDALE AVE,HERNDON,VA,Licensed Preschool/Head Start,VA Licensed Preschool/Head Start,0,38.9727496,-77.3934879
198,20170,HERNDON UNITED ニ_METHODIST ニ_PRESCHOOL ,701 BENNETT ST.,HERNDON,VA,Licensed Preschool/Head Start,VA Licensed Preschool/Head Start,0,38.984824,-77.37635
199,20170,HIGHPOINTS MONTESSORI SCHOOL ,655 SPRING STREET,HERNDON,VA,Licensed Preschool/Head Start,VA Licensed Preschool/Head Start,0,38.968472,-77.386866
200,20170,MONTESSORI COUNTRY SCHOOL ,621 ALABAMA DRIVE,HERNDON,VA,Licensed Preschool/Head Start,VA Licensed Preschool/Head Start,0,38.9603978,-77.387049
201,20170,MONTESSORI PEACE SCHOOL ,730 JACKSON STREET,HERNDON,VA,Licensed Preschool/Head Start,VA Licensed Preschool/Head Start,0,38.970062,-77.380942
202,20170,ST. TIMOTHY'S PRE-SCHOOL ,432 VAN BUREN ST.,HERNDON,VA,Licensed Preschool/Head Start,VA Licensed Preschool/Head Start,0,38.9622066,-77.3834662
203,20171,CA MONTESSORI CHILDREN'S CENTER ,2291 WOOD OAK DRIVE,HERNDON,VA,Licensed,VA Licensed,0,38.9534565,-77.3986071
204,20171,CHESTERBROOK ACADEMY #821 ,2487 MCNAIR FARMS DRIVE,HERNDON,VA,Licensed,VA Licensed,0,38.9458669,-77.409639
205,20171,HAPPY HEARTS CHILDREN'S CENTER ,2730 CENTREVILLE RD,HERNDON,VA,Licensed,VA Licensed,0,38.9332359,-77.4145977
206,20171,KINDERCARE: FRANKLIN FARM ,13228 FRANKLIN FARM RD,HERNDON,VA,Licensed,VA Licensed,0,38.9072595,-77.4047466
207,20171,KINDERCARE: MCLEAREN SQUARE ,3051 CENTREVILLE RD,HERNDON,VA,Licensed,VA Licensed,0,38.9219651,-77.4145438
208,20171,MONTESSORI CHILDREN'S CENTER: HERNDON ,2745 CENTREVILLE RD,HERNDON,VA,Licensed,VA Licensed,0,38.9326555,-77.4134134
209,20171,NYSMITH SCHOOL FOR THE GIFTED ,13625 EDS DRIVE,HERNDON,VA,Licensed,VA Licensed,0,38.9246089,-77.421068
210,20171,PLAY & LEARN AT DULLES CORNER ,2355 DULLES CORNER BLVD.,HERNDON,VA,Licensed,VA Licensed,0,38.9585258,-77.4235945
211,20171,RESTON DAY SCHOOL OF OX FALLS ,3005 DOWER HOUSE DR.,HERNDON,VA,Licensed,VA Licensed,0,38.9128402,-77.3863639
212,20171,THE GARDNER SCHOOL OF HERNDON ,2655 WEST OX RD,HERNDON,VA,Licensed,VA Licensed,0,38.9375041,-77.4138399
213,20171,THE GODDARD SCHOOL: HERNDON (DULLES ,2400 DULLES TOWN BLVD.,HERNDON,VA,Licensed,VA Licensed,0,38.9572485,-77.4222326
214,20171,BEGINNING BRIDGES INC ,13224 FRANKLIN FARM RD,HERNDON,VA,Licensed Preschool/Head Start,VA Licensed Preschool/Head Start,0,38.9080625,-77.4036994
215,20171,DULLES MONTESSORI SCHOOL ,898 CRESTVIEW DRIVE,HERNDON,VA,Licensed Preschool/Head Start,VA Licensed Preschool/Head Start,0,38.974122,-77.399554
216,20171,FLORIS UNITED METHODIST CHURCH PRESCHOOL ,13600 FRYING PAN ROAD,HERNDON,VA,Licensed Preschool/Head Start,VA Licensed Preschool/Head Start,0,38.9428614,-77.4167638
217,20171,LOGOS ACADEMY ,13560 MCLEAREN RD,HERNDON,VA,Licensed Preschool/Head Start,VA Licensed Preschool/Head Start,0,38.9231808,-77.4151576
218,20171,LOLA'S PLACE AT THE BOYD SCHOOL: HERNDON CAMPUS ,13251 WOODLAND PARK RD.,HERNDON,VA,Licensed Preschool/Head Start,VA Licensed Preschool/Head Start,0,38.9525115,-77.4040234
219,20175,A KID'S PLACE ,248 LOUDOUN ST SW,LEESBURG,VA,Licensed,VA Licensed,0,39.1160203,-77.5707053
220,20175,GODDARD SCHOOL-LEESBURG ,"601 TAVISTOCK DR., SE SUITE A",LEESBURG,VA,Licensed,VA Licensed,0,39.0883502,-77.547852
221,20175,KIDDIE ACADEMY OF LEESBURG ,"400 SYCOLIN ROAD, S.E.",LEESBURG,VA,Licensed,VA Licensed,0,39.0934498,-77.5527622
222,20175,KINCAID MONTESSORI SCHOOL ,6 CARDINAL PARK DR. S.E.,LEESBURG,VA,Licensed,VA Licensed,0,39.0991955,-77.5399035
223,20175,LEESBURG OPEN ARMS CDC ,818 S. KING STREET,LEESBURG,VA,Licensed,VA Licensed,0,39.1031644,-77.5710833
224,20175,LOUDOUN COUNTY PARKS & REC CHILD CARE @ DOUGLASS COMM CNTR ,407 EAST MARKET ST,LEESBURG,VA,Licensed,VA Licensed,0,39.1095672,-77.5550652
225,20175,MINNIELAND ACADEMY @ LEESBURG ,"3 GREENWAY DRIVE, S.W.",LEESBURG,VA,Licensed,VA Licensed,0,39.09377,-77.5839095
226,20175,MONTESSORI SCHOOL OF LEESBURG ,"166 FORT EVANS ROAD, NE",LEESBURG,VA,Licensed,VA Licensed,0,39.1047769,-77.5498739
227,20176,KINDERCARE LEARNING CTR #926 ,60 PLAZA ST,LEESBURG,VA,Licensed,VA Licensed,0,39.1094028,-77.5487581
228,20176,LOUDOUN COUNTY PARKS & REC CHILD CARE @ LUCKETTS COMM CNTR ,42361 LUCKETTS RD,LEESBURG,VA,Licensed,VA Licensed,0,39.2148627,-77.5339799
229,20176,TINY SAINTS CHRISTIAN ACADEMY ,850 EDWARDS FERRY ROAD,LEESBURG,VA,Licensed,VA Licensed,0,39.1138783,-77.5436397
230,20176,WINWOOD CHILDREN'S CENTER ,301 VIRGINIA WILDFLOWER TERRACE SE,LEESBURG,VA,Licensed,VA Licensed,0,39.0902377,-77.5565702
231,20176,"WINWOOD CHILDREN'S CENTER VI, LLC ",18792 UPPER MEADOW DRIVE,LANSDOWNE,VA,Licensed,VA Licensed,0,39.0934066,-77.5053585
232,20176,A ROOM TO GROW PRESCHOOL @ IDA LEE PARK REC CENTER ,60 IDA LEE DRIVE NW,LEESBURG,VA,Licensed Preschool/Head Start,VA Licensed Preschool/Head Start,0,39.1235947,-77.5657363
233,20180,LOUDOUN COUNTY PARKS & REC CHILD CARE @ LOVETTSVILLE COMM ,57 EAST BROAD WAY,LOVETTSVILLE,VA,Licensed,VA Licensed,0,39.2702,-77.633035
234,20180,LOVETTSVILLE MONTESSORI SCHOOL ,4A SOUTH CHURCH STREET,LOVETTSVILLE,VA,Licensed Preschool/Head Start,VA Licensed Preschool/Head Start,0,39.272811,-77.642088
235,20185,PIEDMONT CHILD CARE CTR ,9121 JOHN MOSBY HWY,UPPERVILLE,VA,Licensed,VA Licensed,0,38.991524,-77.882838
236,20186,CHILDREN OF AMERICA: WARRENTON ,164 WEST SHIRLEY AVE,WARRENTON,VA,Licensed,VA Licensed,0,38.7104956,-77.8042015
237,20186,HIGHLAND SCHOOL ,597 BROADVIEW AVE,WARRENTON,VA,Licensed,VA Licensed,0,38.7346199,-77.8019512
238,20186,MEADOWBROOK CHILD DEVELOPMENT CTR ,555 WINCHESTER ST,WARRENTON,VA,Licensed,VA Licensed,0,38.727239,-77.799464
239,20186,WALNUT GROVE CHILD CARE CENTER #1 ,9132 JAMES MADISON HWY,WARRENTON,VA,Licensed,VA Licensed,0,38.660539,-77.798745
240,20186,BOXWOOD MONTESSORI SCHOOL ,507 WINCHESTER ST,WARRENTON,VA,Licensed Preschool/Head Start,VA Licensed Preschool/Head Start,0,38.726065,-77.7994
241,20186,FAUQUIER COMMUNITY ACTION COMMITTEE INC: ニ_CENTRAL HEAD START ,"430 E SHIRLEY AVE, BLDG C",WARRENTON,VA,Licensed Preschool/Head Start,VA Licensed Preschool/Head Start,0,38.699847,-77.790234
242,20186,JACK & JILL CHILD CARE CENTER ,200 GREEN ST,WARRENTON,VA,Licensed Preschool/Head Start,VA Licensed Preschool/Head Start,0,38.708689,-77.797888
243,20187,MAPLEWOOD CHILD CARE CENTER ,4513 LEE HIGHWAY,WARRENTON,VA,Licensed,VA Licensed,0,38.770167,-77.69911
244,20187,WALNUT GROVE ACADEMY #3 ,4238 BURROUGH DR,WARRENTON,VA,Licensed,VA Licensed,0,38.747811,-77.681925
245,20187,MS. LINNIE DALE'S MINI PRESCHOOL ,4214 BROAD RUN CHURCH RD,WARRENTON,VA,Licensed Preschool/Head Start,VA Licensed Preschool/Head Start,0,38.764696,-77.682328
246,20190,Childtime Learning Center: Reston ,10057 Kings Hwy,Reston,VA,3 Star,VA 3 Star,2,38.9552797,-77.3381855
247,20190,Laurel Learning Center ,411 South Main St,Reston,VA,3 Star,VA 3 Star,2,38.9692713,-77.3931896
248,20190,Common Ground Child Care Center ,1020 Champion's Way,Reston,VA,4 Star,VA 4 Star,3,38.9851165,-77.3570761
249,20190,ACADEMY OF CHRISTIAN EDUCATION ,1808 A MICHAEL FARADAY CT,RESTON,VA,Licensed,VA Licensed,0,38.950276,-77.332987
250,20190,BAR-T RESTON ,11480 SUNSET HILLS RD SUITE 100,RESTON,VA,Licensed,VA Licensed,0,38.9527054,-77.3417912
251,20190,BRIGHT HORIZONS @ RESTON ,11710 PLAZA AMERICA DRIVE SUITE 10,RESTON,VA,Licensed,VA Licensed,0,38.9524176,-77.3508501
252,20190,CHILDTIME LEARNING CENTER: RESTON ,11511 SUNSET HILLS ROAD,RESTON,VA,Licensed,VA Licensed,0,38.9521627,-77.3438274
253,20190,COMMON GROUND CHILD CARE CENTER ,1700 WAINWRIGHT DR.,RESTON,VA,Licensed,VA Licensed,0,38.9666534,-77.3531032
254,20190,GREAT DAY LEARNING CENTER ,11155 NORTH SHORE DRIVE,RESTON,VA,Licensed,VA Licensed,0,38.969337,-77.331945
255,20190,HORIZON CHILD DEVELOPMENT CENTER ,1710 CLUBHOUSE RD.,RESTON,VA,Licensed,VA Licensed,0,38.962297,-77.347162
256,20190,KINDERCARE: NEWTON SQUARE ,1946 ISAAC NEWTON SQ W,RESTON,VA,Licensed,VA Licensed,0,38.9534223,-77.3390538
257,20190,KINDERCARE: RESTON ,1802 OLD RESTON AVE,RESTON,VA,Licensed,VA Licensed,0,38.9594949,-77.351943
258,20190,LAUREL LEARNING CENTER ,"11484 WASHINGTON PLAZA, SUITE 200",RESTON,VA,Licensed,VA Licensed,0,38.968527,-77.3425651
259,20190,OAK HILL CHRISTIAN SCHOOL-RESTON CAMPUS ,11480 SUNSET HILLS RD,RESTON,VA,Licensed,VA Licensed,0,38.9527054,-77.3417912
260,20190,RESTON MONTESSORI SCHOOL ,1928 ISAAC NEWTON SQUARE WEST,RESTON,VA,Licensed,VA Licensed,0,38.9543218,-77.3387014
261,20190,ROBERT E. SIMON JR. CHILDREN'S CENTER ,1800 CAMERON GLEN DR.,RESTON,VA,Licensed,VA Licensed,0,38.964281,-77.358859
262,20190,RUSSIAN KIDS HOUSE ,11445 ISAAC NEWTON SQUARE # 100,RESTON,VA,Licensed,VA Licensed,0,38.9514288,-77.3400394
263,20190,TLC4KIDS CHILDREN'S CENTER ,1603 NORTH WASHINGTON PLAZA,RESTON,VA,Licensed,VA Licensed,0,38.969128,-77.34072
264,20190,WINWOOD CHILDREN'S CENTER III ,1841 EXPLORER STREET,RESTON,VA,Licensed,VA Licensed,0,38.9609739,-77.3593667
265,20190,YMCA/METRO - RESTON ,12196 SUNSET HILLS RD.,RESTON,VA,Licensed,VA Licensed,0,38.9560449,-77.3681742
266,20190,CHILDREN'S HOUSE MONTESSORI SCHOOL--RESTON ,1625 WIEHLE AVE.,RESTON,VA,Licensed Preschool/Head Start,VA Licensed Preschool/Head Start,0,38.9626965,-77.3336914
267,20190,"LAKE ANNE NURSERY-KINDERGARTEN, INC ",12021 NORTH SHORE DR.,RESTON,VA,Licensed Preschool/Head Start,VA Licensed Preschool/Head Start,0,38.9576426,-77.333436
268,20190,S.M.I.L.E. PROGRAM @ RESTON TEEN CENTER ,12196 SUNSET HILLS RD,RESTON,VA,Licensed Preschool/Head Start,VA Licensed Preschool/Head Start,0,38.9560449,-77.3681742
269,20191,Fecep/Head Start Program @ Dogwood ,95 Patricia Lane,Reston,VA,3 Star,VA 3 Star,2,38.9302229,-77.3439283
270,20191,GOOD BEGINNINGS SCHOOL ,11501 SUNRISE VALLEY DR.,RESTON,VA,Licensed,VA Licensed,0,38.9445521,-77.3449631
271,20191,KIDDIE ACADEMY OF RESTON ,12320 PINECREST RD SUITE 150,RESTON,VA,Licensed,VA Licensed,0,38.9360412,-77.3736449
272,20191,KINDERCARE: SOAPSTONE ,2300 SOAPSTONE DR,RESTON,VA,Licensed,VA Licensed,0,38.9310554,-77.3471083
273,20191,RESTON CHILDREN'S CENTER ,11825 OLDE CRAFTS DRIVE,RESTON,VA,Licensed,VA Licensed,0,38.9368441,-77.3551046
274,20191,SUNSET HILLS MONTESSORI SCHOOL ,11180 RIDGE HEIGHTS RD.,RESTON,VA,Licensed,VA Licensed,0,38.9346233,-77.3321463
275,20191,AL FATIH ACADEMY ,12300 PINECREST RD,RESTON,VA,Licensed Preschool/Head Start,VA Licensed Preschool/Head Start,0,38.9359383,-77.3735669
276,20191,HUNTERS WOODS PRESCHOOL ,11550 GLADE DR.,RESTON,VA,Licensed Preschool/Head Start,VA Licensed Preschool/Head Start,0,38.926774,-77.34523
277,20194,COMMUNITY MONTESSORI SCHOOL ,1700 RESTON PARKWAY,RESTON,VA,Licensed,VA Licensed,0,38.9685635,-77.3521477
278,20194,KINDERCARE: LAKE NEWPORT ,11875 LAKE NEWPORT RD,RESTON,VA,Licensed,VA Licensed,0,38.979203,-77.3571045
279,20194,KINDERCARE: NORTH VILLAGE ,1309 NORTH VILLAGE RD,RESTON,VA,Licensed,VA Licensed,0,38.9844383,-77.3409749
280,20198,WAKEFIELD SCHOOL ,4439 OLD TAVERN RD,THE PLAINS,VA,Licensed,VA Licensed,0,38.8556575,-77.7755424
281,20601,J P RYON ELEM PREK,12140 VIVIAN ADAMS DR,WALDORF,MD,Licensed,MD Licensed,0,38.6220772,-76.8894866
282,20601,GRACE CHRISTIAN ACADEMY OF MD INF CTR ,13000 ZEKIAH DR,WALDORF,MD,Licensed,MD Licensed,0,38.573431,-76.859393
283,20601,MALCOLM ELEM PREK,14760 POPLAR HILL,WALDORF,MD,Licensed,MD Licensed,0,38.617167,-76.798338
284,20601,WALDORF HEAD START AT HEALTH PARTNERS,3070 CRAIN HGWY STE 100,WALDORF,MD,Licensed,MD Licensed,0,38.6278371,-76.9079301
285,20601,ST PETERS EXTENDED DAY CARE,3310 ST PETERS DR,WALDORF,MD,Licensed,MD Licensed,0,38.62122,-76.861963
286,20602,Our Ladys Little Christians,100 Village Street,Waldorf,MD,1,MD 1,1,38.602619,-76.898516
287,20602,EVA TURNER ELEM PREK,1000 BANNISTER CIR,WALDORF,MD,1,MD 1,1,38.5942466,-76.9027488
288,20602,ARTHUR MIDDLETON ELEM PREK,1109 COPLEY AVE,WALDORF,MD,1,MD 1,1,38.6025774,-76.9218682
289,20602,Children's Place Early Learning Center,11695 Doolittle Drive,Waldorf,MD,1,MD 1,1,38.611193,-76.9036898
290,20602,MARY B NEAL ELEM PREK,12105 ST GEORGES DR,WALDORF,MD,5,MD 5,3,38.5854101,-76.9030968
291,20602,FIRST BAPTIST AT ST CHARLES,136 STODDERT AVE,WALDORF,MD,Licensed,MD Licensed,0,38.6074907,-76.9209903
292,20602,Good Shepherd Education Center,305 E. Smallwood Drive,Waldorf,MD,Licensed,MD Licensed,0,38.6043929,-76.9137286
293,20602,KinderCare Learning Center,3999 St. Mark's Drive,Waldorf,MD,Licensed,MD Licensed,0,38.6070189,-76.8879273
294,20602,Jelly Beans Child Development Center II,4167 Old Washington Road,Waldorf,MD,Licensed,MD Licensed,0,38.5983733,-76.9357074
295,20602,NEW HOPE CHURCH OF GOD KIDDIE KOLLEGE,4200 OLD WASHINGTON RD,WALDORF,MD,Licensed,MD Licensed,0,38.5963932,-76.9356173
296,20602,DR GUSTAVUS BROWN ELEM PREK,421 UNIVERSITY DR,WALDORF,MD,Licensed,MD Licensed,0,38.5946487,-76.9194349
297,20602,DR SAMUEL MUDD ELEM PREK,820 STONE AVE,WALDORF,MD,Licensed,MD Licensed,0,38.6079338,-76.910305
298,20603,WALDORF BAPTIST KIND AND PRESCHOOL,10045 BUNKER HILL RD,WALDORF,MD,1,MD 1,1,38.6484916,-76.9624119
299,20603,BERRY ELEM PREK,10155 BERRY RD,WALDORF,MD,1,MD 1,1,38.64792,-76.9601207
300,20603,KinderCare Learning Center,2011 Smallwood Drive West,Waldorf,MD,2,MD 2,2,38.6198616,-76.9371794
301,20603,WADE ELEM PREK,2300 SMALLWOOD DR,WALDORF,MD,Licensed,MD Licensed,0,38.61766,-76.9467658
302,20603,WILLIAM A DIGGS ELEM PREK,2615 DAVIS RD,WALDORF,MD,Licensed,MD Licensed,0,38.648446,-76.972992
303,20603,The Journey of Faith Center for Child Development,2900 Smallwood Drive West,Waldorf,MD,Licensed,MD Licensed,0,38.6182026,-76.9683756
304,20603,THE DROP ZONE DROP-IN CCC,3332 B CRAIN HWY,WALDORF,MD,Licensed,MD Licensed,0,38.6203306,-76.9165995
305,20603,C PAUL BARNHART ELEM PREK,4800 LANCASTER CIR,WALDORF,MD,Licensed,MD Licensed,0,38.6243366,-76.9375502
306,20603,BEDDOW SCHOOL,6008 HAMPSHIRE CIR,WALDORF,MD,Licensed,MD Licensed,0,38.6196791,-76.9529577
307,20603,The Goddard School,7005 St Florian Dr,Waldorf,MD,Licensed,MD Licensed,0,38.6175953,-76.9652655
308,20603,JENIFER ELEM PREK,820 JENIFER SCHOOL LN,WALDORF,MD,Licensed,MD Licensed,0,38.6359046,-76.9270756
309,20606,,,,MD,Licensed,MD Licensed,0,38.2452988,-76.736538
310,20607,ACCOKEEK ACADEMY PREK,14400 BERRY RD,ACCOKEEK,MD,1,MD 1,1,38.68788,-76.97882
311,20607,Discover and Learn Childcare Center,17307 Summerwood La,Accokeek,MD,Licensed,MD Licensed,0,38.651618,-77.0313649
312,20608,,,,MD,Licensed,MD Licensed,0,38.5899833,-76.6990172
313,20609,,,,MD,Licensed,MD Licensed,0,38.2702751,-76.750966
314,20611,,,,MD,Licensed,MD Licensed,0,38.4621051,-76.9815877
315,20612,,,,MD,Licensed,MD Licensed,0,38.5139633,-76.6773655
316,20613,CATHERINE CHRISTIAN LEARNING CENTER,13515 BRANDYWINE RD,BRANDYWINE,MD,Licensed,MD Licensed,0,38.702675,-76.879947
317,20613,BADEN ELEM PREK,13601 BADEN-WESTWOOD RD,BRANDYWINE,MD,Licensed,MD Licensed,0,38.6607863,-76.7701752
318,20613,BRANDYWINE ES,14101 BRANDYWINE RD,BRANDYWINE,MD,Licensed,MD Licensed,0,38.69608,-76.8531749
319,20613,FUTURE LEADERS LEARNING CENTER LLC,9000 CHELTENHAM DR,BRANDYWINE,MD,Licensed,MD Licensed,0,38.713904,-76.849344
320,20615,,,,MD,Licensed,MD Licensed,0,38.4132166,-76.5546031
321,20616,,,,MD,Licensed,MD Licensed,0,38.6551092,-77.0909809
322,20617,T C MARTIN ELEM PREK,6315 OLIVERS SHOP RD,BRYANTOWN,MD,Licensed,MD Licensed,0,38.540678,-76.843834
323,20618,,,,MD,Licensed,MD Licensed,0,38.2904375,-76.7913558
324,20619,Creative Beginnings,22840 Three Notch Rd.,California,MD,1,MD 1,1,38.2951767,-76.50079
325,20619,HONEY MCCALLUM CENTER,23421 KINGSTON CREEK RD,CALIFORNIA,MD,1,MD 1,1,38.3105152,-76.505159
326,20619,Starmaker School for Early Education at Wildewood,23443 Cottonwood Parkway,California,MD,3,MD 3,2,38.309733,-76.543304
327,20619,EVERGREEN ELEM PREK,43765 EVERGREEN WAY,CALIFORNIA,MD,Licensed,MD Licensed,0,38.3013201,-76.5640857
328,20619,LITTLE BLESSING CHILDCARE CENTER,44850 ST ANDREWS CHURCH RD,CALIFORNIA,MD,Licensed,MD Licensed,0,38.3006866,-76.525199
329,20619,Riversong Christian Learning Center,45020 Patuxent Bech Rd. PO Box 828,California,MD,Licensed,MD Licensed,0,38.308297,-76.518734
330,20620,FLYING COLORS EARLY LEARNING CTR,20948 POINT LOOKOUT RD,CALLAWAY,MD,Licensed,MD Licensed,0,38.239709,-76.524012
331,20621,DYNARD ELEM PREK,23510 BUSHWOOD RD,CHAPTICO,MD,Licensed,MD Licensed,0,38.313337,-76.759372
332,20622,SUPERSTAR LEARNING CTR,29962 KILLPECK CREEK CT UNIT 4,CHARLOTTE HALL,MD,Licensed,MD Licensed,0,38.491329,-76.76482
333,20623,SUNRISE STUDIO,9814 SPINNAKER ST,CHELTENHAM,MD,Licensed,MD Licensed,0,38.74639,-76.8396549
334,20624,,,,MD,Licensed,MD Licensed,0,38.3473015,-76.745195
335,20625,,,,MD,Licensed,MD Licensed,0,38.2244271,-76.8490328
336,20626,,,,MD,Licensed,MD Licensed,0,38.2048528,-76.7682775
337,20628,,,,MD,Licensed,MD Licensed,0,38.1506658,-76.3463624
338,20630,,,,MD,Licensed,MD Licensed,0,38.1493789,-76.4678766
339,20632,,,,MD,Licensed,MD Licensed,0,38.4284785,-76.958545
340,20634,LITTLE FLOWER SCHOOL  PREK AND BAS,20410 POINT LOOKOUT RD,GREAT MILLS,MD,Licensed,MD Licensed,0,38.23957,-76.506899
341,20634,BABY TALK TOO,21130 GREAT MILLS RD,GREAT MILLS,MD,Licensed,MD Licensed,0,38.2472669,-76.4880818
342,20634,GREENVIEW KNOLLS ELEM PREK,45711 MILITARY LN,GREAT MILLS,MD,Licensed,MD Licensed,0,38.2799819,-76.493117
343,20635,BUILDING BLOCKS OF FAITH LEARNING,29870 POINT LOOKOUT RD,HELEN,MD,Licensed,MD Licensed,0,38.384,-76.719161
344,20636,HOLLYWOOD UNITED METHODIST PRESCHL,24423 MERVELL DEAN RD,HOLLYWOOD,MD,Licensed,MD Licensed,0,38.3378905,-76.5600927
345,20636,PREP AND PLAY PRESCHOOL AND DCC,24442 MERVELL DEAN RD,HOLLYWOOD,MD,Licensed,MD Licensed,0,38.33937,-76.561682
346,20636,HOLLYWOOD ELEM PREK,44345 JOY CHAPEL RD,HOLLYWOOD,MD,Licensed,MD Licensed,0,38.337217,-76.540196
347,20637,Jelly Beans Hughesville LLC,14955 Foster Lane,Hughesville,MD,1,MD 1,1,38.5454401,-76.7935362
348,20637,Bar-T Kids Club at Poolesville,17550 West Willard Rd,Poolesville,MD,1,MD 1,1,39.14425,-77.420176
349,20637,BRAWNERS HEAD START,P O BOX 280,HUGHESVILLE,MD,Licensed,MD Licensed,0,38.5326217,-76.7838559
350,20637,EVA TURNER HEAD START,SMTCCAC PO BOX 280,HUGHESVILLE,MD,Licensed,MD Licensed,0,38.5326217,-76.7838559
351,20639,Smart Start Early Learning Center,10 Sheckells Lane,Huntingtown,MD,1,MD 1,1,38.6359938,-76.6045144
352,20639,Plum Point Elementary Before and After School Program,1245 Plum Point Rd.,Huntingtown,MD,1,MD 1,1,38.5953691,-76.587195
353,20639,Lucrezia's Child Care,2620 Lady Anne's Way,Huntingtown,MD,3,MD 3,2,38.601377,-76.576574
354,20639,CALVERTON SCHOOL EXTENDED DAY,300 CALVERTON SCHOOL RD,HUNTINGTOWN,MD,3,MD 3,2,38.588989,-76.6087914
355,20639,The Clubhouse Child Care,3150 Solomons Island Road,Huntingtown,MD,3,MD 3,2,38.6001382,-76.6154961
356,20639,Noahs Ark Learning Center,4214 OLD Town Rd.,Huntingtown,MD,Licensed,MD Licensed,0,38.622771,-76.612521
357,20639,LITTLE LAMBS PRESCHOOL,6300 SOUTHERN MD BLVD,HUNTINGTOWN,MD,Licensed,MD Licensed,0,38.660223,-76.608377
358,20639,GOOD NEWS PRESCHOOL,885 COX RD,HUNTINGTOWN,MD,Licensed,MD Licensed,0,38.610801,-76.594547
359,20639,YOUNGER YEARS ELC,995 GRACE RD,HUNTINGTOWN,MD,Licensed,MD Licensed,0,38.649848,-76.623274
360,20639,HUNTINGTOWN UMC LEARNING CENTER,PO BOX 550,HUNTINGTOWN,MD,Licensed,MD Licensed,0,38.6159533,-76.613015
361,20639,TIDEWATER SCHOOL,PO BOX 755,HUNTINGTOWN,MD,Licensed,MD Licensed,0,38.6159533,-76.613015
362,20640,Claires Day Care Center III,2 North Prospect Avenue,Indian Head,MD,1,MD 1,1,38.598744,-77.158034
363,20640,J C PARKS ELEM PREK,3505 LIVINGSTON RD,INDIAN HEAD,MD,1,MD 1,1,38.6148396,-77.0749087
364,20640,Claires Day Care II,4 N Prospect Ave.,Indian Head,MD,1,MD 1,1,38.598743,-77.158769
365,20640,INDIAN HEAD ELEM PREK,4200 INDIANHEAD HWAY,INDIAN HEAD,MD,Licensed,MD Licensed,0,38.6003882,-77.1668356
366,20640,Saint Mary Star of the Sea Day Care Center,6495 Indian Head Hwy.,Indian Head,MD,Licensed,MD Licensed,0,38.6199532,-77.0903766
367,20640,POTOMAC HEIGHTS CHRISTIAN ACAD,P O BOX 149 37 GLYMONT RD,INDIAN HEAD,MD,Licensed,MD Licensed,0,38.6053871,-77.1323292
368,20645,,,,MD,Licensed,MD Licensed,0,38.2620765,-76.9066829
369,20646,Nia Imani Academy of Excellence,"101 Catalpa Drive, Unit 104",La Plata,MD,1,MD 1,1,38.5169153,-76.9823775
370,20646,ARCHBISHOP NEALE BASC,104 PORT TOBACCO RD,LA PLATA,MD,1,MD 1,1,38.5284389,-76.9869149
371,20646,Grace Lutheran Preschool and Extended Care Center,1200 Charles Street,La Plata,MD,1,MD 1,1,38.530433,-76.959785
372,20646,Jelly Beans Child Care Center,12108 Charles Street,LaPlata,MD,1,MD 1,1,38.4810003,-76.889449
373,20646,PAIGES OF TIME EARLY LEARNING CENTER,207 KENT AVE,LA PLATA,MD,2,MD 2,2,38.532232,-76.9752309
374,20646,Blessed Lambs Preschool,3 Port Tobacco Road,La Plata,MD,5,MD 5,3,38.5284109,-76.9838067
375,20646,WALTER J MITCHELL ELEM PREK,400 WILLOW LN,LA PLATA,MD,Licensed,MD Licensed,0,38.519282,-76.9693562
376,20646,MARY H MATULA ELEM PREK,6025 RADIO STATION RD,LA PLATA,MD,Licensed,MD Licensed,0,38.5464743,-76.9484581
377,20646,Little Angels Learning Center,6310 Crain Highway,La Plata,MD,Licensed,MD Licensed,0,38.5386712,-76.9835122
378,20646,St Charles Childrens Learning Center at the College of Southern Maryland,"8730 Mitchell Road, P.O.Box 910",La Plata,MD,Licensed,MD Licensed,0,38.558853,-77.006125
379,20650,LEONARDTOWN ELEM PREK,22885 DUKE ST,LEONARDTOWN,MD,2,MD 2,2,38.296563,-76.6393779
380,20650,Saint Mary's Sunshine Center,22995 Moakley St.,Leonardtown,MD,Licensed,MD Licensed,0,38.3049415,-76.640812
381,20650,LITTLE SEEDLINGS CHRISTIAN MOTHERS DAY OUT,PO BOX 2260,LENARDTOWN,MD,Licensed,MD Licensed,0,38.2394461,-76.6181655
382,20650,GREEN HOLLY SCHOOL AGE CENTER,PO BOX 653,LEONARDTOWN,MD,Licensed,MD Licensed,0,38.291238,-76.6357942
383,20650,LEONARDTOWN SCHOOL AGE CENTER,PO BOX 653,LEONARDTOWN,MD,Licensed,MD Licensed,0,38.291238,-76.6357942
384,20653,Dameron Daycare II,19256 Three Notch Rd,Lexington Park,MD,1,MD 1,1,38.197527,-76.39197
385,20653,BAY MONTESSORI SCHOOL INC,20525 WILLOWS RD,LEXINGTON PARK,MD,1,MD 1,1,38.23067,-76.461524
386,20653,Little People Child Care Center at Jarboe Educational Center,21161 Lexwood Drive,Lexington Park,MD,Licensed,MD Licensed,0,38.248885,-76.485633
387,20653,LEXINGTON PARK ELEM PREK,400 SHANGRI LA DR,LEXINGTON PARK,MD,Licensed,MD Licensed,0,38.2605518,-76.4602316
388,20653,GREEN HOLLY ES HDST,46060 MILLSTONE LANDING RD,LEXINGTON PARK,MD,Licensed,MD Licensed,0,38.29358,-76.483948
389,20653,LITTLE SONBEAMS CHRISTIAN PRES,46707 SHANGRI-LA DR,LEXINGTON PARK,MD,Licensed,MD Licensed,0,38.260222,-76.459161
390,20653,LEXINGTON PARK BAPTIST CH PRES,46855 S SHANGRI LA DR,LEXINGTON PARK,MD,Licensed,MD Licensed,0,38.2620165,-76.4541704
391,20653,GEORGE WASHINGTON CARVER ELEM PREK,47382 LINCOLN AVE  ,LEXINGTON PARK,MD,Licensed,MD Licensed,0,38.254314,-76.43632
392,20656,ANNEX HDST CENTER,27184 POINT LOOKOUT RD,LOVEVILLE,MD,Licensed,MD Licensed,0,38.3299467,-76.6767912
393,20656,BANNEKER/LOVEVILLE ELEM PREK,P O BOX 165 E  RT 2,LOVEVILLE,MD,Licensed,MD Licensed,0,38.3429259,-76.6845832
394,20657,ST PAULS UNITED METH PRESCHOOL,11000 HG TRUEMAN RD,LUSBY,MD,1,MD 1,1,38.389482,-76.43105
395,20657,DOWELL ELEM PREK,12680 H G TRUEMAN RD,LUSBY,MD,1,MD 1,1,38.356837,-76.450811
396,20657,Dowell Elementary School BASP,12680 H.G. Truman Rd.,Lusby,MD,Licensed,MD Licensed,0,38.356837,-76.450811
397,20657,Patuxent Elementary Before and After School Program,35 Appeal Lane,Lusby,MD,Licensed,MD Licensed,0,38.376917,-76.439033
398,20657,PATUXENT ELEM PREK,35 APPEAL LN,LUSBY,MD,Licensed,MD Licensed,0,38.376917,-76.439033
399,20657,PATUXENT ELEM PS HDST,35 APPEAL LN,LUSBY,MD,Licensed,MD Licensed,0,38.376917,-76.439033
400,20658,GALE BAILEY ELEM PREK,P O BOX 306 RT 1,MARBURY,MD,Licensed,MD Licensed,0,38.5991679,-77.1556494
401,20659,OAKVILLE ELEM PREK,26410 THREE NOTCH RD,MECHANICSVILLE,MD,1,MD 1,1,38.394896,-76.646279
402,20659,TINY FOOTSTEPS CHILD CARE CTR,27078 OXLEY DR,MECHANICSVILLE,MD,Licensed,MD Licensed,0,38.412309,-76.794972
403,20659,Mount Zion United Methodist Church Preschool,27108 Mt Zion Church Rd,Mechanicsville,MD,Licensed,MD Licensed,0,38.4135909,-76.680267
404,20659,MECHANICSVILLE ES HDST CENTER,28585 THREE NOTCH RD,MECHANICSVILLE,MD,Licensed,MD Licensed,0,38.45299,-76.754814
405,20659,ST PAULS LUTHERAN PRESCHOOL,37707 NEW MARKET TURNER,MECHANICSVILLE,MD,Licensed,MD Licensed,0,38.4732814,-76.772203
406,20659,LETTIE MARSHALL DENT ELEM PREK,37840 NEW MARKET TURNER,MECHANICSVILLE,MD,Licensed,MD Licensed,0,38.474825,-76.767902
407,20659,MOTHER CATHERINE ACADEMY,38833 CHAPTICO RD,MECHANICSVILLE,MD,Licensed,MD Licensed,0,38.3772768,-76.7327618
408,20660,BABY TALK CDC AT CHOPTICON HS,25390 COLTON POINT RD,MORGANZA,MD,Licensed,MD Licensed,0,38.3598611,-76.7082302
409,20662,MT HOPE/NANJEMOY ELEM PREK,P O BOX 63 RT 1,NANJEMOY,MD,Licensed,MD Licensed,0,38.3306006,-77.2456783
410,20664,DR THOMAS HIGDON ELEM PREK,12872 ROCK POINT RD,NEWBURG,MD,Licensed,MD Licensed,0,38.3594634,-76.9406797
411,20667,PARK HALL ELEM PREK,20343 HERMANVILLE RD,PARK HALL,MD,Licensed,MD Licensed,0,38.225485,-76.452678
412,20670,,,,MD,Licensed,MD Licensed,0,38.2890465,-76.4215988
413,20674,,,,MD,Licensed,MD Licensed,0,38.1423641,-76.5074805
414,20675,DR JAMES CRAIK ELEM PREK,7725 MARSHALL CORNER RD,POMFRET,MD,Licensed,MD Licensed,0,38.5690666,-77.0298527
415,20676,MUTUAL ELEM PREK,1455 BALL RD,PORT REPUBLIC,MD,1,MD 1,1,38.471919,-76.532129
416,20676,Mutual Elementary Before and After School Program,1455 Ball Rd.,Port Republic,MD,Licensed,MD Licensed,0,38.471919,-76.532129
417,20677,,,,MD,Licensed,MD Licensed,0,38.5054061,-77.0449327
418,20678,CHRISTIAN BEGINNINGS PRESCHL AT ST JOHN F,105 VIANNEY LN,PRINCE FREDERICK,MD,1,MD 1,1,38.5376959,-76.5804898
419,20678,"Noah's Ark, Too!",106 Hospital Road,Prince Frederick,MD,1,MD 1,1,38.5589967,-76.5950083
420,20678,CALVERT ELEM PREK,1450 DARES BEACH RD,PRINCE FREDERICK,MD,1,MD 1,1,38.554193,-76.570383
421,20678,Calvert Elementary Before and After School Program,1450 Dares Beach Rd.,Prince Frederick,MD,1,MD 1,1,38.554193,-76.570383
422,20678,Busy Bee Nursery,1660 DARES BEACH RD,PRINCE FREDERICK,MD,1,MD 1,1,38.5531841,-76.5653152
423,20678,BARSTOW ELEM PREK,295 J W WILLIAMS RD,PRINCE FREDERICK,MD,Licensed,MD Licensed,0,38.5412109,-76.609268
424,20678,BASTOW ELEM PS HDST,295 WILLIAMS RD,PRINCE FREDERICK,MD,Licensed,MD Licensed,0,38.5412109,-76.609268
425,20678,Barstow Elementary Before and After School Program,295 Williams Road,Prince Frederick,MD,Licensed,MD Licensed,0,38.5412109,-76.609268
426,20678,Dawns Early Light Inc,301 Steeplechase Drive Suite 407,Prince Frederick,MD,Licensed,MD Licensed,0,38.5515147,-76.5903359
427,20678,CALVERT NURSERY SCHOOL,PO BOX 1762,PRINCE FREDERICK,MD,Licensed,MD Licensed,0,38.5403996,-76.5844017
428,20680,RIDGE ELEM PREK,49430 AIRDALE RD,RIDGE,MD,Licensed,MD Licensed,0,40.0298078,-75.3234553
429,20684,,,,MD,Licensed,MD Licensed,0,38.1232068,-76.4215988
430,20685,You Are Loved Child Care Center,150 Ball Road Suite 100,St. Leonard,MD,1,MD 1,1,38.469716,-76.511897
431,20685,ST LEONARD ELEM PREK,5370 ST LEONARD RD,SAINT LEONARD,MD,1,MD 1,1,38.4638893,-76.4993326
432,20685,Saint Leonard BASC,5370 St. Leonard Rd.,St. Leonard,MD,1,MD 1,1,38.4638893,-76.4993326
433,20685,Gateway Early Learning Center LLC,5845 Calvert Blvd.,St. Leonard,MD,Licensed,MD Licensed,0,38.459157,-76.476816
434,20686,,,,MD,Licensed,MD Licensed,0,38.1875888,-76.4288308
435,20687,,,,MD,Licensed,MD Licensed,0,37.9994332,-76.3405733
436,20688,ADVENTURE POINT YOUTH ACTIVITY CENTER,105 SWAGGER POINT RD,SOLOMONS,MD,1,MD 1,1,38.326114,-76.459244
437,20688,Solomons Day Care Center,105 Swaggers Point Rd,Solomons,MD,Licensed,MD Licensed,0,38.3486353,-76.4617971
438,20689,SUNDERLAND ELEM PREK,150 CLYDE JONES RD,SUNDERLAND,MD,1,MD 1,1,38.669928,-76.603329
439,20689,SUNDERLAND ELEM PS HDST,150 CLYDE JONES RD,SUNDERLAND,MD,Licensed,MD Licensed,0,38.669928,-76.603329
440,20689,Sunderland Elementary Before and After School Program,150 Clyde Jones Rd.,Sunderland,MD,Licensed,MD Licensed,0,38.669928,-76.603329
441,20690,,,,MD,Licensed,MD Licensed,0,38.165574,-76.5342586
442,20692,,,,MD,Licensed,MD Licensed,0,38.1800377,-76.5083562
443,20693,,,,MD,Licensed,MD Licensed,0,38.4575702,-77.0794705
444,20695,SOUTHERN MD CHRISTIAN ACAD B/A,PO BOX 1168,WHITE PLAINS,MD,Licensed,MD Licensed,0,38.5911751,-76.9423672
445,20701,,,,MD,Licensed,MD Licensed,0,39.1202934,-76.7769324
446,20705,FRANCES FUCH PREK,11011 CHERRY HILL RD,BELTSVILLE,MD,1,MD 1,1,39.035178,-76.943449
447,20705,FRANCES FUCHS SPECIAL CTR HDST,11017 CHERRY HILL RD,BELTSVILLE,MD,1,MD 1,1,39.035955,-76.94468
448,20705,Childway II,11388 Cherry Hill Road,Beltsville,MD,1,MD 1,1,39.0418082,-76.9494835
449,20705,CRESCENT DAY NURSERY,11723 CHILCOATE LN,BELTSVILLE,MD,Licensed,MD Licensed,0,39.048028,-76.913669
450,20705,KinderCare Learning Center,11740 Beltsville Drive,Beltsville,MD,Licensed,MD Licensed,0,39.051065,-76.9426844
451,20705,CALVERTON ELEM PREK,3400 BELTSVILLE RD,BELTSVILLE,MD,Licensed,MD Licensed,0,39.0555083,-76.9344948
452,20705,BELTSVILLE ELEM PREK,4300 WICOMICO AVE,BELTSVILLE,MD,Licensed,MD Licensed,0,39.0386488,-76.9185731
453,20705,VANESVILLE ELEM PREK,6813 AMMENDALE RD,BELTSVILLE,MD,Licensed,MD Licensed,0,39.0464884,-76.887919
454,20705,VANSVILLE ELEM HDST,6813 AMMENDALE RD,BELTSVILLE,MD,Licensed,MD Licensed,0,39.0464884,-76.887919
455,20705,Vansville B/A Extended Learning Program,6813 Ammendale Road,Beltsville,MD,Licensed,MD Licensed,0,39.0464884,-76.887919
456,20706,JUDGE S WOODS ELEM PREK,3000 CHURCH ST,GLENARDEN,MD,1,MD 1,1,38.932788,-76.872831
457,20706,JUDGE SYLVANIA WOODS SR ELEM HDST,3000 CHURCH ST,GLENARDEN,MD,1,MD 1,1,38.932788,-76.872831
458,20706,Kindercare Learning Center #1301,4880 Forbes Blvd,Lanham,MD,1,MD 1,1,38.9574835,-76.8380411
459,20706,IRS/NEW CARROLLTON CHILD DEV CENTER,5000 ELLIN RD RM A 1 700,LANHAM,MD,1,MD 1,1,38.9497829,-76.8731339
460,20706,SEABROOK ELEM PREK,6001 SEABROOK RD,SEABROOK,MD,1,MD 1,1,38.9679003,-76.8408912
461,20706,GAYWOOD ELEM PREK,6701 97TH AVE,LANHAM,MD,1,MD 1,1,38.979186,-76.839613
462,20706,"Themba Creative Learning Center, LLC",6715 Cipriano Road,Lanham,MD,2,MD 2,2,38.9827372,-76.8548999
463,20706,MAGNOLIA ELEM PREK,8400 NIGHTINGALE DR,LANHAM,MD,2,MD 2,2,38.9829842,-76.8610944
464,20706,Magnolia Elementary Before and After Care Program,8400 Nightingale Dr.,Lanham,MD,Licensed,MD Licensed,0,38.9829842,-76.8610944
465,20706,The Joy of Learning Center III,8845 Annapolis Road,Lanham,MD,Licensed,MD Licensed,0,38.9567008,-76.8695083
466,20706,James McHenry Elementary Before and After Care Program,8909 McHenry Lane,Lanham,MD,Licensed,MD Licensed,0,38.9588304,-76.8511314
467,20706,JAMES MCHENRY ELEM PREK,8909 MCHENRY LN,LANHAM,MD,Licensed,MD Licensed,0,38.9588304,-76.8511314
468,20706,JAMES MCHENRY ELEM HDST,8909 WHITFIELD CHAPEL RD,LANHAM,MD,Licensed,MD Licensed,0,38.9636084,-76.8574315
469,20706,Flowers DayCare Center,9340 Lanham Severn Rd,Lanham,MD,Licensed,MD Licensed,0,38.9712472,-76.8494111
470,20706,ST MATTHIAS APOSTLE SCHL/EXTD SCHL PROG,9473 ANNAPOLIS RD,LANHAM,MD,Licensed,MD Licensed,0,38.963448,-76.84085
471,20706,CATHERINE REED ELEM HDST,9501 GREENBELT RD,LANHAM,MD,Licensed,MD Licensed,0,38.9895179,-76.842221
472,20706,Catherine T. Reed Before and After Care Program,9501 Greenbelt Rd.,Lanham,MD,Licensed,MD Licensed,0,38.9895179,-76.842221
473,20706,KIDDIE ACADEMY OF GREENBELT,9845 GREENBELT RD,LANHAM,MD,Licensed,MD Licensed,0,38.9908146,-76.8343375
474,20706,Robert Goddard School Before and After School Program,9850 Good Luck Road,Seabrook,MD,Licensed,MD Licensed,0,38.987939,-76.842952
475,20707,Kindercare Learning Center,14225 Park Center Drive,Laurel,MD,1,MD 1,1,39.0845984,-76.8771926
476,20707,THE GODDARD SCHOOL,14250 PARK CENTER DR,LAUREL,MD,1,MD 1,1,39.085942,-76.877677
477,20707,FIRST BAPTIST SCHOOL OF LAUREL,15002 1ST BAPTIST LN,LAUREL,MD,1,MD 1,1,39.0998047,-76.8774958
478,20707,SCOTCHTOWN HILLS ELEM HDST,15950 DORSET RD,LAUREL,MD,1,MD 1,1,39.108713,-76.878328
479,20707,SCOTCHTOWN HILLS ELEM PREK,15950 DORSET RD,LAUREL,MD,1,MD 1,1,39.108713,-76.878328
480,20707,Scotchtown Hills Before and After Program,15950 Dorset Road,Laurel,MD,3,MD 3,2,39.108713,-76.878328
481,20707,Milestones Enrichment Center,308 Compton Ave,Laurel,MD,Licensed,MD Licensed,0,39.0990891,-76.8500558
482,20707,LAUREL ELEM PREK,516 MONTGOMERY ST,LAUREL,MD,Licensed,MD Licensed,0,39.104747,-76.8525271
483,20707,CREATIVE EXPLORATION ELC,6510 OLD SANDY SPRING DR,LAUREL,MD,Licensed,MD Licensed,0,39.1001227,-76.892961
484,20707,Holy Trinity Christian Day School,7607 Old Sandy Spring Rd,Laurel,MD,Licensed,MD Licensed,0,39.103391,-76.8737326
485,20707,LAUREL COMMUNITY CENTER PRESCHOOL,7901 CYPRESS ST,LAUREL,MD,Licensed,MD Licensed,0,39.0826408,-76.8665128
486,20707,PALLOTTI EARLY LEARNING AT ST MARY OF THE MILLS,800 MAIN ST,LAUREL,MD,Licensed,MD Licensed,0,39.1091998,-76.8559812
487,20707,BRIGHTER BEGINNINGS 4 KIDS ,8038 ASHFORD BLVD,LAUREL,MD,Licensed,MD Licensed,0,39.092346,-76.865591
488,20707,Kiddie Academy of Laurel,8101 Sandy Spring Road Suite 102,Laurel,MD,Licensed,MD Licensed,0,39.1036576,-76.86722
489,20707,Wee Care II Learning Center LLC,"8200 GORMAN AVENUE LAUREL, MD 20707",LAUREL,MD,Licensed,MD Licensed,0,39.101849,-76.864146
490,20708,DEERFIELD RUN ELEM PREK,13000 LAUREL-BOWIE RD,LAUREL,MD,1,MD 1,1,39.0711169,-76.8465475
491,20708,JAMES HARRISON ELEM PREK,13200 LARCHDALE RD,LAUREL,MD,Licensed,MD Licensed,0,39.07177,-76.86294
492,20708,OAKLAND ELEM PREK,13710 LAUREL-BOWIE RD,LAUREL,MD,Licensed,MD Licensed,0,39.079009,-76.849711
493,20708,Montpelier Elementary Before and After School Age Care,9200 Muirkirk Rd,Laurel,MD,Licensed,MD Licensed,0,39.054392,-76.845645
494,20708,MONTPELIER ELEM PREK,9200 MURIKIRK RD,LAUREL,MD,Licensed,MD Licensed,0,39.054392,-76.845645
495,20710,Even Start Early Learning Center,4200 57th Avenue,Bladensburg,MD,1,MD 1,1,38.942597,-76.9187859
496,20710,ROGERS HEIGHTS ELEM PREK,4301 58TH AVE,BLADENSBURG,MD,Licensed,MD Licensed,0,38.945585,-76.911979
497,20710,PORT TOWNS ELEM PREK,4381 58TH AVE,BLADENSBURG,MD,Licensed,MD Licensed,0,38.9464966,-76.9131838
498,20710,BLADENSBURG ELEM PREK,4915 ANNAPOLIS RD,BLADENSBURG,MD,Licensed,MD Licensed,0,38.938237,-76.932085
499,20711,LOTHIAN ELEM PREK,5175 SOLOMONS ISLAND RD,LOTHIAN,MD,3,MD 3,2,38.827335,-76.613094
500,20711,Lothian Elementary School Age Child Care @ Southern Middle School,5235 Solomons Island Road,Lothian,MD,Licensed,MD Licensed,0,38.8234179,-76.608531
501,20711,MIRACLE TEMPLE DAY CARE,5501 SANDS RD,LOTHIAN,MD,Licensed,MD Licensed,0,38.806644,-76.689838
502,20711,LITTLE LEARNERS LLC,5757 SOLOMONS ISLAND RD,LOTHIAN,MD,Licensed,MD Licensed,0,38.78734,-76.596464
503,20711,PRAISE REDEMPTION WORSHIP CTR CDC,968 LOWER PINDELL RD,LOTHIAN,MD,Licensed,MD Licensed,0,38.770241,-76.662746
504,20712,MT RAINIER ELEM PREK,4011 32ND ST,MOUNT RAINIER,MD,Licensed,MD Licensed,0,38.9389333,-76.9629384
505,20712,THOMAS STONE ELEM HDST,4500 34TH ST,MOUNT RAINIER,MD,Licensed,MD Licensed,0,38.9461659,-76.9627838
506,20712,THOMAS STONE ELEM PREK,4500 34TH ST,MOUNT RAINIER,MD,Licensed,MD Licensed,0,38.9461659,-76.9627838
507,20714,MT HARMONY PRESCHOOL CENTER,P O BOX 435,NORTH BEACH,MD,Licensed,MD Licensed,0,38.7073406,-76.5310669
508,20715,Kenilworth B/A Care Program,12520 Kembridge Drive,Bowie,MD,1,MD 1,1,38.9593542,-76.7346073
509,20715,CHAPEL FORGE ECC HDST,12711 MILAN WAY,BOWIE,MD,1,MD 1,1,38.986752,-76.736631
510,20715,CHAPEL FORGE ECC PREK,12711 MILAN WAY,BOWIE,MD,1,MD 1,1,38.986752,-76.736631
511,20715,ST PIUS REGIONAL SCHOOL,14701 ANNAPOLIS RD,BOWIE,MD,1,MD 1,1,38.9752913,-76.7494664
512,20715,St. Matthew's UME Education Center,14900 Annapolis Road,Bowie,MD,2,MD 2,2,38.9770909,-76.7455718
513,20715,BELAIR COOPERATIVE NURSERY SCHOOL,3120 BELAIR DR,BOWIE,MD,2,MD 2,2,38.9754702,-76.7424653
514,20715,BOWIE THERAPEUTIC NURSERY CTR ,3120 BELAIR DR,BOWIE,MD,Licensed,MD Licensed,0,38.9754702,-76.7424653
515,20715,Whitehall Elementary Before and After School Extended Learning Program,3901 Woodhaven Lane,Bowie,MD,Licensed,MD Licensed,0,38.989556,-76.751231
516,20715,BOWIE MONTESSORI CHILDRENS HOUSE,5004 RANDONSTONE LN,BOWIE,MD,Licensed,MD Licensed,0,39.003437,-76.754735
517,20715,REDEEMER CHILD CARE CTR,7300 RACE TRACK RD,BOWIE,MD,Licensed,MD Licensed,0,38.9889216,-76.7343518
518,20715,Yorktown Elem School,7301 Race Track Road.,Bowie,MD,Licensed,MD Licensed,0,38.9897753,-76.733015
519,20715,ROCKLEDGE ELEM PREK,7701 LAUREL-BOWIE RD,BOWIE,MD,Licensed,MD Licensed,0,38.996777,-76.7577442
520,20715,Rainbow Child Care III,8921 Race Track Road,Bowie,MD,Licensed,MD Licensed,0,39.0134516,-76.7534566
521,20715,Rockledge Elementary B&A SELP,"Rockledge Elementary School 7701 Laurel Bowie Road Bowie, Maryland 20715",Bowie,MD,Licensed,MD Licensed,0,38.9860548,-76.745195
522,20716,Pointer Ridge Before and After School Program,"1110 Parkington Lane,",Bowie,MD,1,MD 1,1,38.9049932,-76.728291
523,20716,Heather Hills Elementary BASELP,12605 Heming LN,Bowie,MD,1,MD 1,1,38.95173,-76.731793
524,20716,APPLE DUMPLING DAY CARE,2303 ALSTEAD LN,BOWIE,MD,2,MD 2,2,38.921495,-76.723193
525,20716,BOWIE CHILD CARE CENTER,2515 MITCHELLVILLE RD,BOWIE,MD,2,MD 2,2,38.925388,-76.732238
526,20716,Kinder Care Learning Center #1118,3560 Mitchelleville Road,Bowie,MD,Licensed,MD Licensed,0,38.9387341,-76.73058
527,20716,NORTHVIEW ELEM PREK,3700 NORTHVIEW DR,BOWIE,MD,Licensed,MD Licensed,0,38.9400787,-76.743896
528,20716,Northview Before and After School Learning Program,3700 Northview Drive,Bowie,MD,Licensed,MD Licensed,0,38.9400787,-76.743896
529,20720,THE GODDARD SCHOOL,14200 ANNAPOLIS RD,BOWIE,MD,1,MD 1,1,38.9697985,-76.7587811
530,20720,CATERPILLAR CLUBHOUSE,14201 OLD STAGE RD,BOWIE,MD,1,MD 1,1,38.957579,-76.758771
531,20720,PATUXENT MONTESSORI SCHOOL,14210 OLD STAGE RD,BOWIE,MD,Licensed,MD Licensed,0,38.9592991,-76.7578943
532,20720,Celebree Learning Center,6119 High Bridge Road,Bowie,MD,Licensed,MD Licensed,0,38.9738512,-76.7714584
533,20720,Tom Thumb  Day Nursery,6907 High Bridge Rd,Bowie,MD,Licensed,MD Licensed,0,38.9843479,-76.7720167
534,20721,Lake Arbor Elementary School BASEP,10205 Lake Arbor Way,Mitchellville,MD,1,MD 1,1,38.9039114,-76.8294671
535,20721,LAKE ARBOR ELEM PREK,10205 LAKE ARBOR WAY,MITCHELLVILLE,MD,1,MD 1,1,38.9039114,-76.8294671
536,20721,Kindercare  Learning Center,10280 lake arbor way,Mitchellville,MD,1,MD 1,1,38.9071893,-76.8283912
537,20721,BUNDLE OF JOY DAYCARE,1102 DELCASTLE CT,BOWIE,MD,2,MD 2,2,38.905548,-76.75564
538,20721,Little Smiling Faces II,12112 Central Avenue,Mitchellville,MD,2,MD 2,2,38.8993629,-76.7964726
539,20721,Woodmore Elementary  Before And  After Care,12500 Woodmore Road,Mitchellville,MD,Licensed,MD Licensed,0,38.9259882,-76.7892324
540,20721,KINGSFORD ELEM PREK,1401 ENTERPRISE RD,MITCHELLVILLE,MD,Licensed,MD Licensed,0,38.908593,-76.796832
541,20721,Kingsford Elementary School Extended Learning Program,"1401 Enterprise Road Bowie, MD    20721",Bowie,MD,Licensed,MD Licensed,0,38.908593,-76.796832
542,20721,AT HOME EARLY LEARNING CENTER,15105 JOPPA PL,BOWIE,MD,Licensed,MD Licensed,0,38.900583,-76.745096
543,20721,LK'S PLACE,903 FALLS LAKE DR,MITCHELLVILLE,MD,Licensed,MD Licensed,0,38.9023323,-76.8302827
544,20722,,,,MD,Licensed,MD Licensed,0,38.9321713,-76.947022
545,20723,GOOD BEGINNINGS CHILD CARE CENTER,10473 GORMAN RD,LAUREL,MD,1,MD 1,1,39.151257,-76.872803
546,20723,Emmanuel United Methodist Preschool,10755 Scaggsville Road,Laurel,MD,1,MD 1,1,39.1396142,-76.8854583
547,20723,Knowledge Beginnings,7551 Montpelier Road,Laurel,MD,1,MD 1,1,39.1619115,-76.8929019
548,20723,Hammond Elementary SAS,8110 Aladdin Drive,Laurel,MD,1,MD 1,1,39.148098,-76.8787094
549,20723,LAUREL WOODS ELEM PREK,9250 N LAUREL RD,LAUREL,MD,1,MD 1,1,39.1176262,-76.8420116
550,20723,Laurel Woods Extended Recreation Program,9250 n. laurel road,laurel,MD,1,MD 1,1,39.1176262,-76.8420116
551,20723,JULIA BROWN MONTESSORI,9450 MADISON AVE,LAUREL,MD,5,MD 5,3,39.1096766,-76.8400629
552,20723,STARS Learning Center,9535 whiskey bottom rd,laurel,MD,Licensed,MD Licensed,0,39.122355,-76.840958
553,20723,Forest Ridge Extended Recreation Program,9550 Gorman Road,laurel,MD,Licensed,MD Licensed,0,39.1349933,-76.8400641
554,20723,GORMAN CROSSING ELEM PREK,9999 WINTER SUN RD,LAUREL,MD,Licensed,MD Licensed,0,39.1443903,-76.8581046
555,20723,Gorman Crossing Extended Recreation Program,9999 Winter Sun Road,laurel,MD,Licensed,MD Licensed,0,39.1443903,-76.8581046
556,20724,Maryland City School Age Child Care,3359 Crumpton South,Laurel,MD,2,MD 2,2,39.095459,-76.8173319
557,20724,Kinder Care Learning Center,3504 Russett Common,Laurel,MD,3,MD 3,2,39.102506,-76.8038972
558,20724,BROCK BRIDGE ELEM PREK,405 BROCK BRIDGE RD,LAUREL,MD,3,MD 3,2,39.0881897,-76.8209972
559,20724,Brock Bridge School Age Childcare,405 Brock Bridge Road,Laurel,MD,Licensed,MD Licensed,0,39.0881897,-76.8209972
560,20732,BEACH ELEM PREK,3800 OLD BAYSIDE RD,CHESAPEAKE BEACH,MD,1,MD 1,1,38.6831549,-76.5360794
561,20732,WHERE KIDS GROW HAPPY LLC,7544 BAYSIDE RD,CHESAPEAKE BEACH,MD,Licensed,MD Licensed,0,38.684493,-76.536588
562,20732,Beach Elementary Before and After School Program,7900 Old Bayside Rd.,Chesapeake Beach,MD,Licensed,MD Licensed,0,38.6837067,-76.5375643
563,20733,,,,MD,Licensed,MD Licensed,0,38.802157,-76.5314817
564,20735,Walden Woods BASCP,10301 Thrift Road,Clinton,MD,1,MD 1,1,38.749265,-76.900582
565,20735,TLC LEARNING CENTER,11121 PISCATAWAY RD,CLINTON,MD,1,MD 1,1,38.736483,-76.943019
566,20735,Chris' Learning Center,3204 Accolade Drive,Clinton,MD,1,MD 1,1,38.731475,-76.952241
567,20735,JAMES RYDER RANDALL ELEM PREK,5410 KIRBY RD,CLINTON,MD,1,MD 1,1,38.783552,-76.91427
568,20735,GRACE BRETHERN CHRISTIAN BASP,6501 SURRANTTS RD,CLINTON,MD,Licensed,MD Licensed,0,38.7554506,-76.8936444
569,20735,Outreach Christian Center Academy,6701 Clinton Manor Drive,Clinton,MD,Licensed,MD Licensed,0,38.760028,-76.890372
570,20735,FRANCES T EVANS ELEM PREK,6720 OLD ALEXANDER FERRY RD,CLINTON,MD,Licensed,MD Licensed,0,38.7847141,-76.8897031
571,20735,QUANDERS PLAYLAND CHILD CARE CENTER ,6805 OLD ALEXANDER FERRY RD,CLINTON,MD,Licensed,MD Licensed,0,38.7834641,-76.8893308
572,20735,ST JOHN THE EVANGELIST B/A CARE PROGRAM,8912 OLD BRANCH AVE,CLINTON,MD,Licensed,MD Licensed,0,38.7670796,-76.8989228
573,20735,Clinton Grove Elem BACP,9420 Temple Hill Rd.,Clinton,MD,Licensed,MD Licensed,0,38.7611181,-76.9215393
574,20736,CARDINAL HICKEY ACADEMY BASC ,1601 W MT HARMONY RD,OWINGS,MD,1,MD 1,1,38.7081608,-76.6338512
575,20736,Bright Beginnings Children's Center I,8802 Paris Estates Court,Owings,MD,1,MD 1,1,38.704226,-76.577202
576,20736,Prime Time Youth Activity Center,8812 Donald's Way,Owings,MD,1,MD 1,1,38.704561,-76.581843
577,20736,Prime Time Children's Center,8816 Donald's Way,Owings,MD,2,MD 2,2,38.7050849,-76.5819099
578,20736,Mount Harmony Elementary Before and After School Program,900 West Mount Harmony Rd.,Owings,MD,4,MD 4,3,38.708006,-76.6253605
579,20736,"Bright Beginnings Children's Center, LLC II",9524 Old Solomons Island Road,Owings,MD,4,MD 4,3,38.7132354,-76.6063595
580,20736,WINDY HILL ELEM PREK,9550 BOYDS TURN RD,OWINGS,MD,Licensed,MD Licensed,0,38.7125381,-76.5721242
581,20736,Windy Hill Elementary Before and After School Program,9550 Boyds Turn Rd.,Owings,MD,Licensed,MD Licensed,0,38.7125381,-76.5721242
582,20737,SUNNY DAYS EARLY LEARNING CTR ,4700 RIVER RD,RIVERDALE,MD,Licensed,MD Licensed,0,38.9701152,-76.9258151
583,20737,SACRED HEARTS DAY NURSERY,4805 QUEENSBURY RD,RIVERDALE,MD,Licensed,MD Licensed,0,38.9620091,-76.9320211
584,20737,RIVERDALE ELEM PREK,5006 RIVERDALE RD,RIVERDALE,MD,Licensed,MD Licensed,0,38.9613151,-76.9283651
585,20737,TEMPLETON ELEM PREK,6001 CARTERS LN,RIVERDALE,MD,Licensed,MD Licensed,0,38.9524485,-76.9146169
586,20737,REFRESHING SPRING LEARNING CENTER,6200 RIVERDALE RD,RIVERDALE,MD,Licensed,MD Licensed,0,38.9613803,-76.9113645
587,20737,BEACON HEIGHTS ELEM PREK,6929 FURMAN PKWY,RIVERDALE,MD,Licensed,MD Licensed,0,38.95763,-76.89815
588,20740,UNIVERSITY CHURCH NURSERY SCHL,3621 CAMPUS DR,COLLEGE PARK,MD,1,MD 1,1,38.9841896,-76.9512078
589,20740,HOLY REDEEMER CATHOLIC CHURCH,4902 BERWYN RD,COLLEGE PARK,MD,1,MD 1,1,38.9945175,-76.9277434
590,20740,The Apple Tree Childcare Center,4925 Edgewood Road,College Park,MD,1,MD 1,1,39.0157079,-76.92138
591,20740,PAINT BRANCH ELEM HDST,5101 PIERCE AVE,COLLEGE PARK,MD,1,MD 1,1,38.9868257,-76.926331
592,20740,PAINT BRANCH ELEM PREK,5101 PIERCE AVE,COLLEGE PARK,MD,5,MD 5,3,38.9868257,-76.926331
593,20740,BERWYN HEIGHTS ELEM HDST,6200 PONTIAC ST,BERWYN HEIGHTS,MD,Licensed,MD Licensed,0,38.9921359,-76.9095426
594,20740,Berwyn Heights Elementary School,6200 Pontiac St.,Berwyn Heights,MD,Licensed,MD Licensed,0,38.9921359,-76.9095426
595,20740,NARA Child Care Center,"8601 Adelphi Road,",College Park MD,MD,Licensed,MD Licensed,0,39.0009762,-76.9593483
596,20740,Childway I,9308 cherry hill road,College park,MD,Licensed,MD Licensed,0,39.017841,-76.938233
597,20740,Hollywood  Elementary Before and After Care Program,9811 49th Ave,College Park,MD,Licensed,MD Licensed,0,39.0150897,-76.9227696
598,20740,HOLLYWOOD ELEM PREK,9811 49TH AVE,COLLEGE PARK,MD,Licensed,MD Licensed,0,39.0150897,-76.9227696
599,20742,,,,MD,Licensed,MD Licensed,0,38.9908487,-76.944141
600,20743,Doswell E Brooks Before and After School Extended Learning Program,1301 Brooke Road,Capital Heights,MD,1,MD 1,1,38.8712727,-76.9099749
601,20743,BRADBURY HEIGHTS ELEM,1401 GLACIER AVE,CAPITOL HEIGHTS,MD,1,MD 1,1,38.8709831,-76.9284806
602,20743,BRADBURY HEIGHTS ES,1401 GLACIER AVE,CAPITOL HEIGHTS,MD,1,MD 1,1,38.8709831,-76.9284806
603,20743,CARMODY HILLS ELEM PREK,401 JADELEAF AVE,CAPITOL HEIGHTS,MD,2,MD 2,2,38.8959038,-76.8880541
604,20743,ROBERT GRAY ELEM HDST,4949 ADDISON RD,CAPITOL HEIGHTS,MD,3,MD 3,2,38.9087838,-76.9226524
605,20743,WILLIAM HALL ACADEMY,5200 MARLBORO PIKE,CAPITOL HEIGHTS,MD,Licensed,MD Licensed,0,38.870666,-76.9180849
606,20743,CAPITOL HEIGHTS ELEM PREK,601 SUFFOLK AVE,CAPITOL HEIGHTS,MD,Licensed,MD Licensed,0,38.8819377,-76.9125766
607,20743,Saint Paul King's Kids CDC,6611 Walker Mill Road,Capitol Heights,MD,Licensed,MD Licensed,0,38.8655479,-76.89195
608,20743,John H. Bayne  Elementary Before And After Program,7010 Walker Mill RD,Capitol Heights,MD,Licensed,MD Licensed,0,38.8725966,-76.8850157
609,20743,JOHN BAYNE ELEM PREK,7010 WALKER MILL RD,CAPITOL HEIGHTS,MD,Licensed,MD Licensed,0,38.8725966,-76.8850157
610,20743,Marlton Elementary Before and After   School Care,8506 Old Colony Dr. South,Upper Marlboro,MD,Licensed,MD Licensed,0,38.772335,-76.7896034
611,20743,H WINSHIP WHEATLEY ELEM PREK,8801 RITCHIE RD,CAPITOL HEIGHTS,MD,Licensed,MD Licensed,0,38.8717465,-76.8554183
612,20743,H WINSHIP WHEATLEY HDST CTR,8801 RITCHIE RD,CAPITOL HEIGHTS,MD,Licensed,MD Licensed,0,38.8717465,-76.8554183
613,20743,Bible Babies Child Development Center,9185-B Central Ave.,Capitol Heights,MD,Licensed,MD Licensed,0,38.8882018,-76.8499603
614,20744,Ellicott Mills Middle New  Student Union,10215 old fort place,Ellicott City,MD,1,MD 1,1,38.7478222,-76.9988669
615,20744,Kindercare Learning Center,10925 Indian Head Highway,Fort Washington,MD,1,MD 1,1,38.7384292,-76.992187
616,20744,FORT WASHINGTON CHILD DEV CENTER,12400 FT WASHINGTON RD,FORT WASHINGTON,MD,1,MD 1,1,38.720819,-77.0037569
617,20744,Potomac Landing Elem B/A Care,12500 Fort Washington Drive,Fort Washington,MD,1,MD 1,1,38.718667,-77.003976
618,20744,POTOMAC LANDING ELEM PREK,12500 FT WASHINGTON RD,FORT WASHINGTON,MD,1,MD 1,1,38.718667,-77.003976
619,20744,RAINBOW CHILD CARE,4100 STEEDS GRANT WAY,FORT WASHINGTON,MD,1,MD 1,1,38.759542,-76.954156
620,20744,Future Stars Child Care,7127 Allentown Road Ste 108,Fort Washington,MD,2,MD 2,2,38.792893,-76.930418
621,20744,Avalon Elementary Before and After School Extended Learning Program,7302 Webster Lane,Fort Washington,MD,Licensed,MD Licensed,0,38.791194,-76.942192
622,20744,AVALON ELEM PREK,7302 WEBSTER LN,FORT WASHINGTON,MD,Licensed,MD Licensed,0,38.791194,-76.942192
623,20744,APPLE GROVE ELEM PREK,7400 BELLEFIELD AVE,FORT WASHINGTON,MD,Licensed,MD Licensed,0,38.7892471,-76.9625243
624,20744,Jaycees Child Care Center,7624 Lanham Lane,Fort Washington,MD,Licensed,MD Licensed,0,38.7848587,-76.9328685
625,20744,FORT FOOTE ELEM SCHL HDST,8300 OXON HILL RD,FORT WASHINGTON,MD,Licensed,MD Licensed,0,38.7759359,-77.0049771
626,20744,FORT FOOTE ELEM PREK,8300 OXON HILL RE,FORT WASHINGTON,MD,Licensed,MD Licensed,0,38.7759359,-77.0049771
627,20744,FORT FOOTE BAPTIST CHURCH CDC,8310 FORT FOOTE RD,FORT WASHINGTON,MD,Licensed,MD Licensed,0,38.7743006,-77.0139767
628,20744,INSPIRING KIDZ LLC,8500 ALLENTOWN RD,FORT WASHINGTON,MD,Licensed,MD Licensed,0,38.7725072,-76.9507487
629,20744,Chris' Learning Center III,8500 Allentown Rd H-G,Fort  Washington,MD,Licensed,MD Licensed,0,38.7725072,-76.9507487
630,20744,TAYAC ACADEMY HDST,8600 ALLENTOWN RD,FORT WASHINGTON,MD,Licensed,MD Licensed,0,38.7708655,-76.9503673
631,20744,THE BEDDOW SCHOOL,8600 LOUGHRAN RD,FORT WASHINGTON,MD,Licensed,MD Licensed,0,38.771299,-77.014205
632,20744,ROSE VALLEY ELEM PREK,9800 JACQUELINE DR,FORT WASHINGTON,MD,Licensed,MD Licensed,0,38.7549489,-76.9598583
633,20744,BROAD CREEK CHILD DEVELOPMENT PROGRAM,9801 LIVINGSTON RD,FORT WASHINGTON,MD,Licensed,MD Licensed,0,38.7556527,-77.0009572
634,20745,"Just 4 Kids CCC, Inc.",1910 Owens Road,Oxon Hill,MD,1,MD 1,1,38.817684,-76.974482
635,20745,FOREST HEIGHTS ELEM PREK,200 TALBERT DR,OXON HILL,MD,1,MD 1,1,38.816432,-77.002467
636,20745,BARNABY MANOR ELEM HDST,2411 OWENS RD,OXON HILL,MD,1,MD 1,1,38.8164117,-76.9650083
637,20745,BARNABY MANOR ELEM PREK,2411 OWENS RD,OXON HILL,MD,Licensed,MD Licensed,0,38.8164117,-76.9650083
638,20745,GENESIS III,5474 ST BARNABAS RD,OXON HILL,MD,Licensed,MD Licensed,0,38.812836,-76.963194
639,20745,VALLEY VIEW ELEM PREK,5500 DANBY AVE,OXON HILL,MD,Licensed,MD Licensed,0,38.812173,-76.9761539
640,20745,Kiddie Academy of Oxon Hill,6031 Oxon Hill Road,Oxon Hill,MD,Licensed,MD Licensed,0,38.8047835,-76.9775482
641,20745,PANORAMA ELEM PREK,6360 OXON HILL RD,OXON HILL,MD,Licensed,MD Licensed,0,38.801904,-76.991895
642,20745,John Hanson-Montessori Program,"6360 Oxon Hill Road,",Oxon Hill,MD,Licensed,MD Licensed,0,38.801904,-76.991895
643,20745,FLINTSTONE ELEM HDST,800 COMANCHE DR,OXON HILL,MD,Licensed,MD Licensed,0,38.8067899,-76.9952319
644,20745,GRANDMOTHERS LOVE CHILD DEV CENTER,923 WHITE OAK DR,OXON HILL,MD,Licensed,MD Licensed,0,38.79043,-76.992703
645,20746,Shadyside Day Care Center,2601 Shadyside Ave,Suitland,MD,1,MD 1,1,38.852927,-76.930025
646,20746,Little Stars Child Development Center,3701 St. Barnabas Road,Suitland,MD,1,MD 1,1,38.838539,-76.9423149
647,20746,Benjamin D. Foulois ES B/A,4601 Beauford Road,Suitland,MD,1,MD 1,1,38.8263971,-76.8879493
648,20746,SUITLAND ELEM PREK,4650 HOMER AVE,SUITLAND,MD,1,MD 1,1,38.8527924,-76.9274268
649,20746,GODS CHURCH INTERNATIONAL DAY CARE ,4650 SUITLAND RD,SUITLAND,MD,3,MD 3,2,38.8501665,-76.9275549
650,20746,Shady Side Elementary School Age Child Care,4859 Atwell Road,Shady Side,MD,Licensed,MD Licensed,0,38.8412532,-76.5058472
651,20746,WILLIAM BEANES ELEM HDST,5108 DIANNA DR,SUITLAND,MD,Licensed,MD Licensed,0,38.8414621,-76.9189211
652,20746,WILLIAM BEANES ELEM PREK,5108 DIANNA DR,SUITLAND,MD,Licensed,MD Licensed,0,38.8414621,-76.9189211
653,20746,ST PHILLIP THE APOSTLE B/A AND PRE-K,5414 HENDERSON WAY,CAMP SPRINGS,MD,Licensed,MD Licensed,0,38.82223,-76.913324
654,20746,PRINCETON ELEM PREK,6101 BAXTER DR,SUITLAND,MD,Licensed,MD Licensed,0,38.8134822,-76.9017762
655,20746,PERFECT HARMONY II,6379 SUITLAND RD,SUITLAND,MD,Licensed,MD Licensed,0,38.8297185,-76.8954496
656,20746,New Creative Child Care Before/After Program,6379 Suitland Road,Suitland,MD,Licensed,MD Licensed,0,38.8297185,-76.8954496
657,20747,THOMAS CLAGGETT ELEM HDST,2001 ADDISON RD,DISTRICT HEIGHTS,MD,1,MD 1,1,38.8630687,-76.8879193
658,20747,Concord Elementary Before And After School Extended Learning Program,2004 Concord Lane,District Heights,MD,1,MD 1,1,38.8630468,-76.9081775
659,20747,CONCORD ELEM PREK,2004 CONCORD LN,DISTRICT HEIGHTS,MD,1,MD 1,1,38.8630468,-76.9081775
660,20747,GRANDMAS DAY CARE CENTER,2007 GLENDORA DR,DISTRICT HEIGHTS,MD,1,MD 1,1,38.861978,-76.877582
661,20747,Grow and Learn Daycare,2123 harwood rd,district heights,MD,1,MD 1,1,38.859741,-76.877852
662,20747,DISTRICT HEIGHTS ELEM PREK,2200 COUNTRY RD,DISTRICT HEIGHTS,MD,1,MD 1,1,38.8589373,-76.8971728
663,20747,FRANCES SCOTT KEY ELEM PREK,2301 SCOTT KEY DR,DISTRICT HEIGHTS,MD,2,MD 2,2,38.8601529,-76.903632
664,20747,Francis Scott Key Before And After School Care Program,2301 Scott Key Dr.,District Heights,MD,3,MD 3,2,38.8601529,-76.903632
665,20747,OUR SAVIORS B/A PROGRAM ,3111 FORESTVILLE RD,FORESTVILLE,MD,Licensed,MD Licensed,0,38.846608,-76.873465
666,20747,LONGFIELDS ELEM PREK,3300 NEWKIRK AVE,FORESTVILLE,MD,Licensed,MD Licensed,0,38.8446562,-76.8804683
667,20747,SAMUEL MASSIE ELEM PREK,3301 REGENCY PKWY,FORESTVILLE,MD,Licensed,MD Licensed,0,38.8450604,-76.9075221
668,20747,SAMUEL P MASSIE ELEM HDST,3301 REGENCY PKWY,FORESTVILLE,MD,Licensed,MD Licensed,0,38.8450604,-76.9075221
669,20747,ANDREW JACKSON ACADEMY,3500 REGENCY PKWY,FORESTVILLE,MD,Licensed,MD Licensed,0,38.8409458,-76.9083113
670,20747,ROBERT GRAY ELEM PREK,4949 ADDISON RD,District Heights,MD,Licensed,MD Licensed,0,38.8542493,-76.9045056
671,20747,Danbury Before and After Care Center,5501 Silver Hill RD.,Forestville,MD,Licensed,MD Licensed,0,38.8520626,-76.912249
672,20747,SUPER KIDS CLUBHOUSE EARLY LEARNING CENTER AT PENN STATION,5664 SILVER HILL RD,DISTRICT HEIGHTS,MD,Licensed,MD Licensed,0,38.8555555,-76.9085562
673,20747,Lil People U Day Care Center,5910 Oxon Run Parkway,District Heights,MD,Licensed,MD Licensed,0,38.861536,-76.904141
674,20747,Heaven's Tender Touch,6464 Marlboro Pike,District Heights,MD,Licensed,MD Licensed,0,38.85315,-76.895525
675,20747,MT CALVARY EXTENDED CARE,6704 MARLBORO PIKE,FORESTVILLE,MD,Licensed,MD Licensed,0,38.8516711,-76.8908315
676,20747,Ideal Child Care Center,6809 District Heights Parkway,District Heights,MD,Licensed,MD Licensed,0,38.8599512,-76.8891558
677,20747,C.W.C Day Care Center,7607 Mane Lane,District Heights,MD,Licensed,MD Licensed,0,38.858146,-76.873786
678,20748,Redeem Christian Academy,1901 Iverson St,Temple Hills,MD,1,MD 1,1,38.8300788,-76.9669649
679,20748,OVERLOOK ELEM HDST,3298 CURTIS DR,TEMPLE HILLS,MD,1,MD 1,1,38.848728,-76.950764
680,20748,Li Li's Child Care Center,3415 Brinkley Rd.,Temple Hills,MD,1,MD 1,1,38.802494,-76.949741
681,20748,HILLCREST HEIGHTS ELEM PREK,4305 22ND PL,TEMPLE HILLS,MD,1,MD 1,1,38.8301335,-76.9600241
682,20748,Love Never Fails Learning Center,4401 Brinkley Road,Temple Hills,MD,1,MD 1,1,38.799473,-76.9309619
683,20748,Good News Learning Center,4919 temple hill road,Temple hills,MD,1,MD 1,1,38.819826,-76.950421
684,20748,Veez Bizzy Beez Early Learning Child Care Center,4922 Temple Hill Road,Temple Hills,MD,1,MD 1,1,38.819483,-76.949275
685,20748,Smiling Faces Learning Center,5001 St. Barnabas Road,Temple Hills,MD,Licensed,MD Licensed,0,38.8214714,-76.9566093
686,20748,SAMUEL CHASE ELEM PREK,5700 FISHER RD,TEMPLE HILLS,MD,Licensed,MD Licensed,0,38.8096535,-76.9513964
687,20748,EVANGEL ASSEMBLY DCC,5900 OLD BRANCH AVE,CAMP SPRINGS,MD,Licensed,MD Licensed,0,38.8088662,-76.9104216
688,20748,Allenwood Elementary Before And After Care,6300 Harley Lane,Temple Hills,MD,Licensed,MD Licensed,0,38.8029103,-76.9300971
689,20748,SUNSHINE DAY CARE,6907 MACKSON DR,TEMPLE HILLS,MD,Licensed,MD Licensed,0,38.7944612,-76.9200788
690,20751,TENDER YEARS CHILD CARE AND DEV CTR,6006 DRUM POINT RD,DEALE,MD,Licensed,MD Licensed,0,38.7805319,-76.55459
691,20754,MS BEVS PLACE,2992 CEDARWOOD LN,DUNKIRK,MD,1,MD 1,1,38.741262,-76.659306
692,20754,Dawns Early Light Inc,3150 West Ward Road Suite 405,Dunkirk,MD,4,MD 4,3,38.7176086,-76.663361
693,20754,Kid's Campus Early Learning Center,3185 West Ward Road,Dunkirk,MD,Licensed,MD Licensed,0,38.718776,-76.665097
694,20755,MEADE HEIGHTS ELEM PREK,1925 REECE RD,FORT MEADE,MD,1,MD 1,1,39.1178982,-76.7180854
695,20755,WEST MEADE ELEM PREK,7722 RAY ST,FORT MEADE,MD,Licensed,MD Licensed,0,39.1201516,-76.7600101
696,20755,Children's World Learning Center @ NSA,9899 O'Brien Road,Fort Meade,MD,Licensed,MD Licensed,0,39.1006248,-76.7603897
697,20758,Pointers Run Extended Recreation Program,6600 Trotter Road,Clarksville,MD,1,MD 1,1,39.1908528,-76.9263356
698,20759,Fulton Early Learning Center,11600 scaggsville rd,Fulton,MD,1,MD 1,1,39.1500185,-76.9146971
699,20759,Fulton Extended Recreation Program,11600 Scaggsville Rd,Fulton,MD,1,MD 1,1,39.1500185,-76.9146971
700,20759,FULTON ELEM PREK,11600 SCAGGSVILLE RD,FULTON,MD,Licensed,MD Licensed,0,39.1500185,-76.9146971
701,20759,CEDAR LANE PREK,11630 SCAGGSVILLE RD,FULTON,MD,Licensed,MD Licensed,0,39.1557537,-76.915238
702,20759,TEMPLE ISAIAH PRESCHOOL,12200 SCAGGSVILLE RD,FULTON,MD,Licensed,MD Licensed,0,39.1654203,-76.9369076
703,20759,PS EMPLOYEES CDP AT MARRIOTTS RIDGE HS,P O BOX 538,FULTON,MD,Licensed,MD Licensed,0,39.1511692,-76.9230507
704,20759,PS EMPLOYEES CDP AT CEDAR LANE,PO BOX 538,FULTON,MD,Licensed,MD Licensed,0,39.1511692,-76.9230507
705,20759,PS EMPLOYEES CDP AT LONG REACH,PO BOX 538,FULTON,MD,Licensed,MD Licensed,0,39.1511692,-76.9230507
706,20759,PS EMPLOYEES CDP AT OAKLAND MILLS S,PO BOX 538,FULTON,MD,Licensed,MD Licensed,0,39.1511692,-76.9230507
707,20759,PS EMPLOYEES CDP AT RIVER HILL,PO BOX 538,FULTON,MD,Licensed,MD Licensed,0,39.1511692,-76.9230507
708,20759,PS EMPLOYEES CDP INFANTS AT CEDAR LN,PO BOX 538,FULTON,MD,Licensed,MD Licensed,0,39.1511692,-76.9230507
709,20762,,,,MD,Licensed,MD Licensed,0,38.8112914,-76.8778612
710,20763,BETHEL CHRISTIAN ACADEMY CAMPUS 1,8455 SAVAGE-GUILFORD RD,SAVAGE,MD,Licensed,MD Licensed,0,39.138878,-76.8232926
711,20764,SHADY SIDE ELEM PREK,4859 ATWELL RD,SHADY SIDE,MD,1,MD 1,1,38.8412532,-76.5058472
712,20764,Lula Scott Early Head Start,6243 Shady Side Road,SHADY SIDE,MD,Licensed,MD Licensed,0,38.835576,-76.513559
713,20765,,,,MD,Licensed,MD Licensed,0,38.8434835,-76.544488
714,20769,Perfect Harmony,11404 Covered Bridge Ct,Glenn Dale,MD,1,MD 1,1,38.960279,-76.807669
715,20769,GLENN DALE COMMUNITY CENTER,11901 GLENN DALE BLVD,GLENN DALE,MD,1,MD 1,1,38.9739776,-76.8008918
716,20769,HOLY TRINITY EPISCOPAL DAY SCHOOL,11902 DAISY LN,GLENN DALE,MD,Licensed,MD Licensed,0,38.9799941,-76.8003922
717,20769,Glenn Dale Elementary Before And After Care Program,6700 Glenn Dale Road,Glenn Dale,MD,Licensed,MD Licensed,0,38.9813813,-76.8167513
718,20770,Springhill Lake Elementary Before and After School Program,6060 Springhill Drive,Greenbelt,MD,1,MD 1,1,39.0062558,-76.9030258
719,20770,GREENBELT ECC PREK,66 RIDGE RD,Greenbelt,MD,1,MD 1,1,39.0123657,-76.8771564
720,20770,Greenbelt Elementary Before and After School Program,66 Ridge road,Lanham,MD,1,MD 1,1,39.0113044,-76.8773046
721,20770,Greenway Learning Center for Infant and Children,7501 Greenway Center Drive  Suite 110,Greenbelt,MD,5,MD 5,3,38.9901341,-76.8800066
722,20770,Greenbelt Children's Center,"7600 Hanover Parkway, Ste 100",Greenbelt,MD,Licensed,MD Licensed,0,38.994893,-76.874925
723,20770,GREENBELT ELEM PREK AT GREENBELT CHDN CTR,7600 HANOVER PKWY,GREENBELT,MD,Licensed,MD Licensed,0,38.994893,-76.874925
724,20770,CITY OF GREENBELT PRE-SCHOOL PROGRAM,99 CENTERWAY,GREENBELT,MD,Licensed,MD Licensed,0,39.0024567,-76.8785685
725,20771,Goddard Child Development  Center,NASA/GSFC Code 200.9 Building 90,Greenbelt,MD,5,MD 5,3,38.9916589,-76.8632581
726,20772,GREATER CHRISTIAN COMMUNITY DAYCARE,11425 OLD MARLBORO PIKE,UPPER MARLBORO,MD,1,MD 1,1,38.813631,-76.8079008
727,20772,Mattaponi Elementary Before and After Care Program,11701 Duley Station Road,Upper Marlboro,MD,1,MD 1,1,38.7483266,-76.8055746
728,20772,Barack Obama Elementary Before and After School Extended Learning Program,12700 Brooks Lane,Upper Marlboro,MD,1,MD 1,1,38.6977967,-76.734818
729,20772,BARACK OBAMA ELEM PREK,12799 BROOKE LN,UPPER MARLBORO,MD,1,MD 1,1,38.8338205,-76.7850333
730,20772,Joshua's Play Place Early Learning Center,15304 Marlboro Pike,Upper Marlboro,MD,1,MD 1,1,38.824045,-76.740233
731,20772,PATUXENT ELEM HDST,4410 BISHOPMILL DR,UPPER MARLBORO,MD,Licensed,MD Licensed,0,38.8275145,-76.7099834
732,20772,Patuxent Elementary Before and After Care Program,4410 Bishopmill Drive,Upper Marlboro,MD,Licensed,MD Licensed,0,38.8275145,-76.7099834
733,20772,ST MARY OF THE ASSUMPTION SCHOOL,4610 LARGO RD,UPPER MARLBORO,MD,Licensed,MD Licensed,0,38.8254354,-76.7491187
734,20772,UPPER MARLBORO COUMMUNITY CENTER PRE-SCH,5400 MARLBORO RACE TRACK RD,UPPER MARLBORO,MD,Licensed,MD Licensed,0,38.8144355,-76.7440895
735,20772,Melwood Elementary School,7100 Woodyard Road,Upper Marlboro,MD,Licensed,MD Licensed,0,38.7907013,-76.837961
736,20772,MARLTON ELEM PREK,8506 OLD COLONY DR S,UPPER MARLBORO,MD,Licensed,MD Licensed,0,38.772335,-76.7896034
737,20772,EXCELLENCE CHRISTIAN DAY CARE,9010 FRANK TIPPETT RD,UPPER MARLBORO,MD,Licensed,MD Licensed,0,38.7668354,-76.8290173
738,20772,ROSARYVILLE ELEM PREK,9925 ROSARYVILLE RD,UPPER MARLBORO,MD,Licensed,MD Licensed,0,38.758808,-76.821017
739,20774,Kettering Elementary Before and After Care Program,11000 Layton St,Upper Marlboro,MD,1,MD 1,1,38.891211,-76.814398
740,20774,Largo Park Early Learning Center,"1300 Mercantile Lane, Suite 120 Largo, Maryland 20774",Largo,MD,1,MD 1,1,38.8779723,-76.8317325
741,20774,Little Smiling Faces DCC,13200 Trumpeter Swan Court,Upper Marlboro,MD,1,MD 1,1,38.871058,-76.776027
742,20774,Super Kids Clubhouse Early Learning Center,16201 Trade Zone Ave Suite 106,Upper Marlboro,MD,1,MD 1,1,38.8794391,-76.7237419
743,20774,Lighthouse Child Care Center,2801 Berrywood Lane,Springdale,MD,1,MD 1,1,38.930109,-76.831916
744,20774,ANGELS AND CHERUBS EARLY LEARNING CENTER,610 LARGO RD,UPPER MARLBORO,MD,1,MD 1,1,38.8816371,-76.8112221
745,20774,Ardmore Elementary Before and After School,9301 Ardmore-Ardwick Road,Springdale,MD,2,MD 2,2,38.9341649,-76.8466548
746,20774,ARDMORE ELEM PREK,9301 ARDWICK-ARDMORE RD,SPRINGDALE,MD,Licensed,MD Licensed,0,38.9341649,-76.8466548
747,20774,Phyllis E. Williams Academic Center & Before And After Program,9601 Prince Place,Upper Marlboro,MD,Licensed,MD Licensed,0,38.8892099,-76.8397012
748,20776,SOUTH COUNTY REC CENTER PRE-SCHOOL CENTER,4510 OWENSVILLE SUDLEY RD,HARWOOD,MD,Licensed,MD Licensed,0,38.8590204,-76.6061579
749,20777,MT ZION CHRISTIAN PRESCHOOL,12430 SCAGGSVILLE RD,HIGHLAND,MD,1,MD 1,1,39.1675787,-76.9452439
750,20777,Little Builders Learning Center,13342 Clarksville Pike,Highland,MD,Licensed,MD Licensed,0,39.1806256,-76.9566663
751,20778,,,,MD,Licensed,MD Licensed,0,38.8267563,-76.5661622
752,20779,,,,MD,Licensed,MD Licensed,0,38.7548084,-76.5661622
753,20781,ST JEROMES CHILD CTR,5300 43RD AVE,HYATTSVILLE,MD,Licensed,MD Licensed,0,38.9538729,-76.9432068
754,20781,HYATTSVILLE ELEM HDST,5311 43RD AVENUE,HYATTSVILLE,MD,Licensed,MD Licensed,0,38.9544154,-76.9424437
755,20782,CHILLUM ELEM HDST,1420 CHILLUM RD,HYATTSVILLE,MD,1,MD 1,1,38.958304,-76.983805
756,20782,CHILLUM ELEM PREK,2530 CHILLUM RD,HYATTSVILLE,MD,1,MD 1,1,38.9513412,-76.9670205
757,20782,LOVING 2 LEARN CHILD CARE CENTER,3799 EAST WEST HGWY,HYATTSVILLE,MD,Licensed,MD Licensed,0,38.96575,-76.950446
758,20782,University Park Elementary Before and After Care Program,4315 underwood st,Hyattsville,MD,Licensed,MD Licensed,0,38.9706725,-76.9434213
759,20782,Divinity Child Development Center,5900 40th Avenue,Hyattsville,MD,Licensed,MD Licensed,0,38.9596809,-76.9500489
760,20782,ST MATTHEWS PARISH DC,5901 36TH AVE,HYATTSVILLE,MD,Licensed,MD Licensed,0,38.9621771,-76.955897
761,20782,ROSA PARKS ELEM HDST,6111 AGER RD,HYATTSVILLE,MD,Licensed,MD Licensed,0,38.9655878,-76.9725254
762,20782,ROSA PARKS ELEM PREK,6111 AGER RD,HYATTSVILLE,MD,Licensed,MD Licensed,0,38.9655878,-76.9725254
763,20782,CESAR CHAVEZ ELEM HDST,6609 RIGGS RD,HYATTSVILLE,MD,Licensed,MD Licensed,0,38.9695312,-76.9813409
764,20783,LEWISDALE ELEM PREK,2400 BANNING PL,HYATTSVILLE,MD,1,MD 1,1,38.974559,-76.9680319
765,20783,MARY HARRIS MOTHER JONES ELEM PREK,2405 TECUMSEH ST,ADELPHI,MD,Licensed,MD Licensed,0,38.9999663,-76.9659566
766,20783,PAINT BRANCH MONTESSORI SCH,3215 POWDER MILL RD,ADELPHI,MD,Licensed,MD Licensed,0,39.0325277,-76.9498837
767,20783,RIDGECREST ELEM HDST,6120 RIGGS RD,HYATTSVILLE,MD,Licensed,MD Licensed,0,38.9660689,-76.9890656
768,20783,RIDGECREST ELEM PREK,6210 RIGGS RD,HYATTSVILLE,MD,Licensed,MD Licensed,0,38.9662361,-76.9881715
769,20783,PETERS DEVELOPMENT CENTER,6303 RIGGS RD,HYATTSVILLE,MD,Licensed,MD Licensed,0,38.9667333,-76.9867158
770,20783,LANGLEY PARK MCCORMICK ELEM HDST,8201 15TH AVE,HYATTSVILLE,MD,Licensed,MD Licensed,0,38.9940394,-76.9808383
771,20783,LANGLEY PARK MCCORMICK ELEM PREK,8201 15TH AVE,HYATTSVILLE,MD,Licensed,MD Licensed,0,38.9940394,-76.9808383
772,20783,ADELPHI ELEM PREK,8820 RIGGS RD,ADELPHI,MD,Licensed,MD Licensed,0,39.000281,-76.97493
773,20783,COOL SPRING ELEM JUDY HOYER HDST,8910 RIGGS RD,ADELPHI,MD,Licensed,MD Licensed,0,39.0025067,-76.973732
774,20783,COOL SPRINGS ELEM PREK,8910 RIGGS RD,ADELPHI,MD,Licensed,MD Licensed,0,39.0025067,-76.973732
775,20783,Happy Family Day Care,8915 Riggs Road,Adelphi,MD,Licensed,MD Licensed,0,39.002586,-76.971749
776,20784,COOPER LANE ELEM PREK,3817 COOPER LN,LANDOVER HILLS,MD,3,MD 3,2,38.9395015,-76.8998577
777,20784,WOODRIDGE ELEM PREK,5001 FLINTRIDGE DR,HYATTSVILLE,MD,Licensed,MD Licensed,0,38.9496256,-76.8923467
778,20784,LAMONT ELEM PREK,7101 GOOD LUCK RD,NEW CARROLLTON,MD,Licensed,MD Licensed,0,38.9741872,-76.8834442
779,20784,GLENRIDGE ELEM PREK,7200 GALLATIN ST,LANDOVER HILLS,MD,Licensed,MD Licensed,0,38.951217,-76.8895377
780,20784,ST MARYS PRE-K AND EXTENDED SCHOOL,7207 ANNAPOLIS RD,LANDOVER HILLS,MD,Licensed,MD Licensed,0,38.9468213,-76.8897955
781,20784,New Carrollton Early Learning Center,7823 Riverdale Rd,New Carrollton,MD,Licensed,MD Licensed,0,38.9568687,-76.8769942
782,20784,CARROLLTON ELEM HDST,8300 QUINTANA ST,NEW CARROLLTON,MD,Licensed,MD Licensed,0,38.9682384,-76.8756774
783,20785,COLUMBIA PARK ELEM PREK,1901 KENT VILLAGE DR,LANDOVER,MD,1,MD 1,1,38.9166059,-76.887205
784,20785,CHEVERLY WEEKDAY NURSERY,2801 CHEVERLY AVE,CHEVERLY,MD,1,MD 1,1,38.924704,-76.911194
785,20785,KENMOOR ELEM PREK,3211 82ND AVE,LANDOVER,MD,1,MD 1,1,38.9272489,-76.8672135
786,20785,DODGE PARK ELEM PREK,3401 HUBBARD RD,LANDOVER,MD,1,MD 1,1,38.933166,-76.875626
787,20785,OUR FUTURE STARS CHILDCARE,3416 DODGE PARK RD,LANDOVER,MD,1,MD 1,1,38.932215,-76.879513
788,20785,SHABACH! Christian Learning Center,3600 Brightseat Road,Landover,MD,1,MD 1,1,38.9355627,-76.8587826
789,20785,Apple Early Learning Center,416 Brightseat Road,Landover,MD,1,MD 1,1,38.8960048,-76.8520286
790,20785,ST AMBROSE EXTENDED SCHOOL PRO,6310 JASON ST,CHEVERLY,MD,1,MD 1,1,38.9286493,-76.9071364
791,20785,HIGHLAND PARK ELEM PREK,6501 LOWLAND DR,LANDOVER,MD,1,MD 1,1,38.9035513,-76.8938509
792,20785,Highland Park Before and After School Extended Learning Program,6501 Lowland Drive,Landover,MD,2,MD 2,2,38.9035513,-76.8938509
793,20785,THE KIDZ FACTORY III,7723 BARLOWE RD,CHEVERLY,MD,Licensed,MD Licensed,0,38.9185716,-76.8729986
794,20785,Mighty Minds Enrichment Center,7800 Central Avenue,Landover,MD,Licensed,MD Licensed,0,38.8896419,-76.8719611
795,20785,WILLIAM PACA ELEM HDST,7801 SHERIFF RD,LANDOVER,MD,Licensed,MD Licensed,0,38.9116981,-76.8730212
796,20785,WILLIAM PACA ELEM PREK,7801 SHERIFF RD,LANDOVER,MD,Licensed,MD Licensed,0,38.9116981,-76.8730212
797,20785,Parkview Child Development Center,7900 Oxman Road,Landover,MD,Licensed,MD Licensed,0,38.9226827,-76.8701021
798,20785,LITTLE STUFFIES II LEARNING CTR,7916 SHERIFF RD,LANDOVER,MD,Licensed,MD Licensed,0,38.913566,-76.869325
799,20785,Dreams and Visions Learning Center,8320 Lnadover Road,Landover,MD,Licensed,MD Licensed,0,38.9222332,-76.8649064
800,20785,Jericho Baptist Church ECDC,8500 Jericho City Drive,Landover,MD,Licensed,MD Licensed,0,38.9073831,-76.8576292
801,20785,Children Of The Future IV,8585 Landover Rd,Landover,MD,Licensed,MD Licensed,0,38.916331,-76.858321
802,20785,Oakcrest Elementary Before Care Program,929 Hill Road,Landover,MD,Licensed,MD Licensed,0,38.904553,-76.8875879
803,20785,Cora L. Rice Elementary  BASCP,950 Nalley RD,Hyattsville,MD,Licensed,MD Licensed,0,38.9029876,-76.8755646
804,20785,CORA RICE ELEM HDST,950 NALLEY RD,LANDOVER,MD,Licensed,MD Licensed,0,38.9029876,-76.8755646
805,20785,CORA RICE ELEM PREK,950 NALLEY RD,LANDOVER,MD,Licensed,MD Licensed,0,38.9029876,-76.8755646
806,20786,HIGHLAND PARK CENTER HDST,6501 LOWLAND DR,LANDOVER,MD,Licensed,MD Licensed,0,38.9035513,-76.8938509
807,20794,YMCA at Jessup Elementary School,2900 Elementary School Lane,Jessup,MD,1,MD 1,1,39.1455737,-76.7671577
808,20794,JESSUP ELEM PREK,2900 ELEMENTARY SCHOOL LN,JESSUP,MD,1,MD 1,1,39.1455737,-76.7671577
809,20794,My Little Magic Garden,2972 Jessup Road,Jessup,MD,1,MD 1,1,39.148943,-76.773967
810,20794,Bollman Bridge Extended  Recreation Program,6600 Savage Guilford Rd.,Jessup,MD,2,MD 2,2,39.1548314,-76.8274693
811,20794,BOLLMAN BRIDGE ELEM PREK,8200 SAVAGE-GUILFORD RD,JESSUP,MD,Licensed,MD Licensed,0,39.1459062,-76.8275727
812,20794,Kiddie Garden,8909 Twelve Sons CT,Jessup,MD,Licensed,MD Licensed,0,39.1576628,-76.8208443
813,20812,,,,MD,Licensed,MD Licensed,0,38.9658955,-77.1442022
814,20814,LONE OAK MONTESSORI SCHOOL,10100 OLD GEORGETOWN RD,BETHESDA,MD,5,MD 5,3,39.0211238,-77.123344
815,20814,WHOLE KIDS ACADEMY,10200 OLD GEORGETOWN,BETHESDA,MD,Licensed,MD Licensed,0,39.0228917,-77.1245612
816,20814,BEANSTALK MONTESSORI AND DAYCARE,4915 AUBURN AVE STE 100,BETHESDA,MD,Licensed,MD Licensed,0,38.9900961,-77.1000496
817,20814,SIDWELL FRIENDS LOWER SCHL ASP,5100 EDGEMOOR LN,BETHESDA,MD,Licensed,MD Licensed,0,38.9842713,-77.1005808
818,20814,SIDWELL FRIENDS SCHOOL CDC,5100 EDGEMOOR LN,BETHESDA,MD,Licensed,MD Licensed,0,38.9842713,-77.1005808
819,20814,BETHESDA COMMUNITY SCHOOL,7500 HONEYWELL LN,BETHESDA,MD,Licensed,MD Licensed,0,38.9847218,-77.1116582
820,20814,BETHESDA MONTESSORI SCHOOL,7611 CLARENDON RD,BETHESDA,MD,Licensed,MD Licensed,0,38.9867451,-77.1008078
821,20814,BETHESDA REGGIO CHILDREN'S CENTER,8008 NEWDALE RD,BETHESDA,MD,Licensed,MD Licensed,0,38.9904996,-77.0857334
822,20814,BETH EL PRESCHOOL,8215 OLD GEORGETOWN RD,BETHESDA,MD,Licensed,MD Licensed,0,38.9927514,-77.1065719
823,20814,WESLEY NURSERY SCHOOL,8300 OLD GEORGETOWN RD,BETHESDA,MD,Licensed,MD Licensed,0,38.9931954,-77.1084284
824,20814,SACRED HEART CHILD CARE CENTER,9101 ROCKVILLE PIKE,BETHESDA,MD,Licensed,MD Licensed,0,39.0064197,-77.0952929
825,20814,STONE RIDGE EXT DAY SCHOOL,9101 ROCKVILLE PIKE,BETHESDA,MD,Licensed,MD Licensed,0,39.0064197,-77.0952929
826,20814,FRENCH INTERNATIONAL SCHL,9600 FOREST RD,BETHESDA,MD,Licensed,MD Licensed,0,39.013812,-77.113483
827,20814,Cedar Lane Nursery School,9601 Cedar Lane,Bethesda,MD,Licensed,MD Licensed,0,39.0131272,-77.0893727
828,20815,ALL SAINTS PRESCHOOL,3 CHEVY CHASE CIR,CHEVY CHASE,MD,1,MD 1,1,38.9671467,-77.0783076
829,20815,Kids After Hours at North Chevy Chase,3700 Jones Bridge Rd,Chevy Chase,MD,1,MD 1,1,38.9989321,-77.0730619
830,20815,ARCO IRIS SOMOS,4105 JONES BRIDGE RD,CHEVY CHASE,MD,Licensed,MD Licensed,0,39.001644,-77.080725
831,20815,BETHESDA CHEVY CHASE NURSERY SCHL,4700 NORWOOD DR,CHEVY CHASE,MD,Licensed,MD Licensed,0,38.9752702,-77.0934663
832,20815,CONCORD HILL SCHOOL,6050 WISCONSIN AVE,CHEVY CHASE,MD,Licensed,MD Licensed,0,38.970348,-77.0897602
833,20815,CHEVY CHASE UM PRESCHOOL,7001 CONNECTICUT AVE,CHEVY CHASE,MD,Licensed,MD Licensed,0,38.9801176,-77.0766183
834,20815,OHR KODESH FULL DAY PRESCHOOL,8300 MEADOWBROOK LN,CHEVY CHASE,MD,Licensed,MD Licensed,0,38.993457,-77.0606615
835,20815,Kids Adventures at Rock Creek Forest,8330 Grubb Road,Chevy Chase,MD,Licensed,MD Licensed,0,38.9924686,-77.0510977
836,20815,OUTDOOR NURSERY SCHOOL,8922 SPRING VALLEY RD,CHEVY CHASE,MD,Licensed,MD Licensed,0,39.003964,-77.080573
837,20815,AUDUBON NATURE PRESCHOOL,8940 JONES MILL RD,CHEVY CHASE,MD,Licensed,MD Licensed,0,39.0033902,-77.0673712
838,20816,CABIN JOHN BROOKMONT CHILDRENS PROG,4000 VIRGINIA PL,BETHESDA,MD,Licensed,MD Licensed,0,38.9450705,-77.1221292
839,20816,CRESTVIEW MONTESSORI SCHOOL,4748 A WESTERN AVE,BETHESDA,MD,Licensed,MD Licensed,0,38.9519185,-77.0976136
840,20816,WALDORF CHILDRENS GARDEN,4800 SANGAMORE RD,BETHESDA,MD,Licensed,MD Licensed,0,38.9525327,-77.1218689
841,20816,WESTMORELAND CHILDRENS CENT,5112 ALLAN TER,BETHESDA,MD,Licensed,MD Licensed,0,38.9589089,-77.103066
842,20816,WESTMORELAND CHILDREN CENTER AT WALBROOK,5112 ALLAN TERR,BETHESDA,MD,Licensed,MD Licensed,0,38.9589089,-77.103066
843,20816,WESTMORELAND CHILDREN'S CENTER INC,5112 ALLAN TERRACE,BETHESDA,MD,Licensed,MD Licensed,0,38.9589089,-77.103066
844,20816,ABINGDON MONTESSORI SCHOOL,5144 MASSACHUSETTS AVE,BETHESDA,MD,Licensed,MD Licensed,0,38.9507643,-77.1024844
845,20816,SPRING VALLEY MONTESSORI ACADEMY,5144 MASSACHUSETTS AVE,BETHESDA,MD,Licensed,MD Licensed,0,38.9507643,-77.1024844
846,20816,THE MANOR MONTESSORI SCHOOL,5450 MASSACHUSETTS AVE,BETHESDA,MD,Licensed,MD Licensed,0,38.9572465,-77.1098204
847,20816,THE MANOR MONTESSORI SCHOOL,5450 MASSACHUSETTS AVE,BETHESDA,MD,Licensed,MD Licensed,0,38.9572465,-77.1098204
848,20816,WESTMORELAND CHILDRENS CENTER-PILGRIM,5500 MASSACHUSETTS AVE,BETHESDA,MD,Licensed,MD Licensed,0,38.9581534,-77.1106128
849,20816,WASHINGTON EPISCOPAL SCHOOL,5600 LITTLE FALLS PKWY,BETHESDA,MD,Licensed,MD Licensed,0,38.9665521,-77.1009075
850,20817,GLENBROOK COOP NURSERY SCHOOL,10010 FERNWOOD RD,BETHESDA,MD,1,MD 1,1,39.020963,-77.135805
851,20817,Ashburton Wyngate Children's Center,10010 Fernwood Road,Bethesda,MD,1,MD 1,1,39.020963,-77.135805
852,20817,ZOIA'S CHILDCARE,10020 SINNOTT DR,BETHESDA,MD,1,MD 1,1,39.0219564,-77.1282396
853,20817,MARRIOTT CHILD DEVELOPMENT CTR ,10400 FERNWOOD RD,BETHESDA,MD,1,MD 1,1,39.0247867,-77.1380261
854,20817,ROCK SPRING CHILDRENS CENTER,10401 FERNWOOD RD,BETHESDA,MD,1,MD 1,1,39.0276438,-77.1366203
855,20817,CONCORD ST ANDREWS METHODIST CHURCH,5910 GOLDSBORO RD,BETHESDA,MD,1,MD 1,1,38.9732057,-77.1203252
856,20817,Montgomery Child Care River Road,6301 River Road,Bethesda,MD,Licensed,MD Licensed,0,38.9768874,-77.1265209
857,20817,BANNOCKBURN NURSERY SCHOOL,6314 BANNOCKBURN DR,BETHESDA,MD,Licensed,MD Licensed,0,38.9736773,-77.1416958
